{"ok":true,"meta":[],"results":[{"id":72,"status":"Active","latitude":40.76727216,"longitude":-73.99392888,"label":"W 52 St & 11 Ave","stationAddress":"","availableBikes":16,"availableDocks":23,"nearbyStations":[{"id":480,"distance":0.17780736685282},{"id":513,"distance":0.28502152791732},{"id":508,"distance":0.30285853404336},{"id":495,"distance":0.3196273377671},{"id":530,"distance":0.3430221582592}]},{"id":79,"status":"Active","latitude":40.71911552,"longitude":-74.00666661,"label":"Franklin St & W Broadway","stationAddress":"","availableBikes":2,"availableDocks":25,"nearbyStations":[{"id":320,"distance":0.12171890974379},{"id":249,"distance":0.12541983799964},{"id":248,"distance":0.19705340355185},{"id":329,"distance":0.20654338246413},{"id":257,"distance":0.22049557128084}]},{"id":82,"status":"Active","latitude":40.71117416,"longitude":-74.00016545,"label":"St James Pl & Pearl St","stationAddress":"","availableBikes":9,"availableDocks":16,"nearbyStations":[{"id":308,"distance":0.15756584934213},{"id":2009,"distance":0.1748986293545},{"id":279,"distance":0.24133136604372},{"id":387,"distance":0.25636076076019},{"id":296,"distance":0.26157160957123}]},{"id":83,"status":"Active","latitude":40.68382604,"longitude":-73.97632328,"label":"Atlantic Ave & Fort Greene Pl","stationAddress":"","availableBikes":57,"availableDocks":0,"nearbyStations":[{"id":467,"distance":0.14598112188314},{"id":353,"distance":0.15113153503399},{"id":274,"distance":0.21451690240628},{"id":298,"distance":0.27207746887071},{"id":416,"distance":0.32039492940609}]},{"id":116,"status":"Active","latitude":40.74177603,"longitude":-74.00149746,"label":"W 17 St & 8 Ave","stationAddress":"","availableBikes":5,"availableDocks":33,"nearbyStations":[{"id":470,"distance":0.13875092661019},{"id":434,"distance":0.14902057625289},{"id":463,"distance":0.15491089261269},{"id":284,"distance":0.19977437482364},{"id":482,"distance":0.20247626813278}]},{"id":119,"status":"Active","latitude":40.69608941,"longitude":-73.97803415,"label":"Park Ave & St Edwards St","stationAddress":"","availableBikes":18,"availableDocks":1,"nearbyStations":[{"id":245,"distance":0.20166141956769},{"id":144,"distance":0.21168946422944},{"id":419,"distance":0.23542934533978},{"id":242,"distance":0.25389107805962},{"id":2001,"distance":0.27316091857867}]},{"id":120,"status":"Active","latitude":40.68676793,"longitude":-73.95928168,"label":"Lexington Ave & Classon Ave","stationAddress":"","availableBikes":4,"availableDocks":15,"nearbyStations":[{"id":289,"distance":0.15397856356308},{"id":364,"distance":0.16246560107512},{"id":409,"distance":0.30698866592762},{"id":344,"distance":0.3079117625461},{"id":399,"distance":0.31153286558837}]},{"id":127,"status":"Active","latitude":40.73172428,"longitude":-74.00674436,"label":"Barrow St & Hudson St","stationAddress":"","availableBikes":23,"availableDocks":8,"nearbyStations":[{"id":358,"distance":0.084555375636379},{"id":347,"distance":0.2211416015108},{"id":380,"distance":0.25432155821031},{"id":368,"distance":0.25773138748605},{"id":247,"distance":0.27007341105778}]},{"id":128,"status":"Active","latitude":40.72710258,"longitude":-74.00297088,"label":"MacDougal St & Prince St","stationAddress":"","availableBikes":21,"availableDocks":1,"nearbyStations":[{"id":348,"distance":0.16886445888575},{"id":2004,"distance":0.20768902452446},{"id":368,"distance":0.23091275574696},{"id":161,"distance":0.29223828823505},{"id":303,"distance":0.30128360733073}]},{"id":137,"status":"Active","latitude":40.761628,"longitude":-73.972924,"label":"E 56 St & Madison Ave","stationAddress":"","availableBikes":8,"availableDocks":36,"nearbyStations":[{"id":456,"distance":0.14442444586627},{"id":2023,"distance":0.19174616972935},{"id":281,"distance":0.19576137253846},{"id":520,"distance":0.22050837148652},{"id":352,"distance":0.25643627686617}]},{"id":143,"status":"Active","latitude":40.69239502,"longitude":-73.99337909,"label":"Clinton St & Joralemon St","stationAddress":"","availableBikes":20,"availableDocks":2,"nearbyStations":[{"id":157,"distance":0.1773398244889},{"id":314,"distance":0.1788048218734},{"id":233,"distance":0.22126372044446},{"id":406,"distance":0.23199965220446},{"id":322,"distance":0.28574888580567}]},{"id":144,"status":"Active","latitude":40.69839895,"longitude":-73.98068914,"label":"Nassau St & Navy St","stationAddress":"","availableBikes":16,"availableDocks":0,"nearbyStations":[{"id":2001,"distance":0.10299668065984},{"id":119,"distance":0.21168946422944},{"id":418,"distance":0.28325203815165},{"id":261,"distance":0.29540245285868},{"id":242,"distance":0.3666984901311}]},{"id":146,"status":"Active","latitude":40.71625008,"longitude":-74.0091059,"label":"Hudson St & Reade St","stationAddress":"","availableBikes":11,"availableDocks":25,"nearbyStations":[{"id":152,"distance":0.10434771991772},{"id":276,"distance":0.11093263553555},{"id":147,"distance":0.12462277275544},{"id":249,"distance":0.17005448207038},{"id":320,"distance":0.2074404821622}]},{"id":147,"status":"Active","latitude":40.71542197,"longitude":-74.01121978,"label":"Greenwich St & Warren St","stationAddress":"","availableBikes":31,"availableDocks":0,"nearbyStations":[{"id":309,"distance":0.098735339145773},{"id":152,"distance":0.12030641223045},{"id":146,"distance":0.12462277275544},{"id":276,"distance":0.1482325079995},{"id":426,"distance":0.18046873444958}]},{"id":150,"status":"Active","latitude":40.7208736,"longitude":-73.98085795,"label":"E 2 St & Avenue C","stationAddress":"","availableBikes":1,"availableDocks":27,"nearbyStations":[{"id":400,"distance":0.12145667620484},{"id":302,"distance":0.15327521004094},{"id":393,"distance":0.15383519366165},{"id":301,"distance":0.17332267162254},{"id":349,"distance":0.20781807255038}]},{"id":151,"status":"Active","latitude":40.7218158,"longitude":-73.99720307,"label":"Cleveland Pl & Spring St","stationAddress":"","availableBikes":24,"availableDocks":5,"nearbyStations":[{"id":251,"distance":0.157209678066},{"id":303,"distance":0.17345618840289},{"id":250,"distance":0.20631949134562},{"id":268,"distance":0.2294213912273},{"id":2010,"distance":0.2696270696511}]},{"id":152,"status":"Active","latitude":40.71473993,"longitude":-74.00910627,"label":"Warren St & Church St","stationAddress":"","availableBikes":18,"availableDocks":10,"nearbyStations":[{"id":146,"distance":0.10434771991772},{"id":147,"distance":0.12030641223045},{"id":417,"distance":0.13872400551797},{"id":330,"distance":0.18290062518564},{"id":276,"distance":0.20257391041406}]},{"id":153,"status":"Active","latitude":40.752062307,"longitude":-73.9816324043,"label":"E 40 St & 5 Ave","stationAddress":"","availableBikes":8,"availableDocks":45,"nearbyStations":[{"id":485,"distance":0.14823679268702},{"id":517,"distance":0.19766514800511},{"id":519,"distance":0.20594096671882},{"id":318,"distance":0.206395913908},{"id":484,"distance":0.21758171605149}]},{"id":157,"status":"Active","latitude":40.69089272,"longitude":-73.99612349,"label":"Henry St & Atlantic Ave","stationAddress":"","availableBikes":21,"availableDocks":1,"nearbyStations":[{"id":143,"distance":0.1773398244889},{"id":398,"distance":0.20867711578988},{"id":406,"distance":0.29281876071584},{"id":314,"distance":0.35608214219334},{"id":310,"distance":0.38326074698193}]},{"id":160,"status":"Active","latitude":40.748238,"longitude":-73.978311,"label":"E 37 St & Lexington Ave","stationAddress":"","availableBikes":1,"availableDocks":25,"nearbyStations":[{"id":167,"distance":0.12696102744068},{"id":517,"distance":0.23194499781589},{"id":519,"distance":0.25315839018178},{"id":518,"distance":0.25664530944609},{"id":472,"distance":0.25829515736519}]},{"id":161,"status":"Active","latitude":40.72917025,"longitude":-73.99810231,"label":"LaGuardia Pl & W 3 St","stationAddress":"","availableBikes":24,"availableDocks":10,"nearbyStations":[{"id":336,"distance":0.10332866317703},{"id":294,"distance":0.15462141108544},{"id":375,"distance":0.17487696787038},{"id":335,"distance":0.21256534464713},{"id":252,"distance":0.21489610509694}]},{"id":164,"status":"Active","latitude":40.75323098,"longitude":-73.97032517,"label":"E 47 St & 2 Ave","stationAddress":"","availableBikes":3,"availableDocks":42,"nearbyStations":[{"id":228,"distance":0.12480566818152},{"id":440,"distance":0.13901385780635},{"id":516,"distance":0.15270925229508},{"id":2017,"distance":0.21292737412528},{"id":455,"distance":0.2316578182318}]},{"id":167,"status":"Active","latitude":40.7489006,"longitude":-73.97604882,"label":"E 39 St & 3 Ave","stationAddress":"","availableBikes":3,"availableDocks":42,"nearbyStations":[{"id":160,"distance":0.12696102744068},{"id":518,"distance":0.15609925633712},{"id":517,"distance":0.20927022988687},{"id":519,"distance":0.22295325656534},{"id":2017,"distance":0.26908941850511}]},{"id":168,"status":"Active","latitude":40.73971301,"longitude":-73.99456405,"label":"W 18 St & 6 Ave","stationAddress":"","availableBikes":35,"availableDocks":6,"nearbyStations":[{"id":435,"distance":0.14166222716318},{"id":496,"distance":0.20407145829101},{"id":334,"distance":0.23262909912978},{"id":482,"distance":0.25010362324345},{"id":345,"distance":0.25753992737734}]},{"id":173,"status":"Active","latitude":40.76064679,"longitude":-73.98442659,"label":"Broadway & W 49 St","stationAddress":"","availableBikes":2,"availableDocks":49,"nearbyStations":[{"id":500,"distance":0.1263719659527},{"id":510,"distance":0.20967229789894},{"id":450,"distance":0.21287941343872},{"id":447,"distance":0.21494925566001},{"id":2021,"distance":0.23749587014644}]},{"id":174,"status":"Active","latitude":40.7381765,"longitude":-73.97738662,"label":"E 25 St & 1 Ave","stationAddress":"","availableBikes":1,"availableDocks":29,"nearbyStations":[{"id":2012,"distance":0.092771887492447},{"id":545,"distance":0.12149821309314},{"id":507,"distance":0.13948672808334},{"id":536,"distance":0.24943803612563},{"id":461,"distance":0.29132477931154}]},{"id":195,"status":"Active","latitude":40.70905623,"longitude":-74.01043382,"label":"Liberty St & Broadway","stationAddress":"","availableBikes":7,"availableDocks":36,"nearbyStations":[{"id":319,"distance":0.14817723799072},{"id":360,"distance":0.15330295019711},{"id":376,"distance":0.17091388315725},{"id":316,"distance":0.20709646294671},{"id":264,"distance":0.21346052397741}]},{"id":212,"status":"Active","latitude":40.74334935,"longitude":-74.00681753,"label":"W 16 St & The High Line","stationAddress":"","availableBikes":9,"availableDocks":19,"nearbyStations":[{"id":225,"distance":0.11558882759232},{"id":463,"distance":0.15320333435911},{"id":434,"distance":0.16551021839501},{"id":404,"distance":0.20308469815223},{"id":459,"distance":0.23971949997028}]},{"id":216,"status":"Active","latitude":40.70037867,"longitude":-73.99548059,"label":"Columbia Heights & Cranberry St","stationAddress":"","availableBikes":11,"availableDocks":9,"nearbyStations":[{"id":3180,"distance":0.13992130152902},{"id":217,"distance":0.18644134903521},{"id":391,"distance":0.21953320834916},{"id":321,"distance":0.3035649693792},{"id":2000,"distance":0.35200648966287}]},{"id":217,"status":"Active","latitude":40.70277159,"longitude":-73.99383605,"label":"Old Fulton St","stationAddress":"","availableBikes":2,"availableDocks":35,"nearbyStations":[{"id":216,"distance":0.18644134903521},{"id":2000,"distance":0.23275085515412},{"id":321,"distance":0.29228794788034},{"id":414,"distance":0.32366131646773},{"id":3180,"distance":0.32506084216358}]},{"id":218,"status":"Active","latitude":40.69028437,"longitude":-73.98707105,"label":"Gallatin Pl & Livingston St","stationAddress":"","availableBikes":30,"availableDocks":8,"nearbyStations":[{"id":310,"distance":0.12860918431805},{"id":323,"distance":0.14887485917517},{"id":390,"distance":0.19780809585198},{"id":431,"distance":0.25854747236563},{"id":314,"distance":0.30501466252669}]},{"id":223,"status":"Active","latitude":40.73781509,"longitude":-73.99994661,"label":"W 13 St & 7 Ave","stationAddress":"","availableBikes":4,"availableDocks":29,"nearbyStations":[{"id":482,"distance":0.11140784803635},{"id":284,"distance":0.16354020841943},{"id":345,"distance":0.17728835940053},{"id":383,"distance":0.17887880394223},{"id":254,"distance":0.19991065574152}]},{"id":224,"status":"Active","latitude":40.71146364,"longitude":-74.00552427,"label":"Spruce St & Nassau St","stationAddress":"","availableBikes":4,"availableDocks":25,"nearbyStations":[{"id":387,"distance":0.099977314635144},{"id":316,"distance":0.14183858138306},{"id":319,"distance":0.20728748336186},{"id":330,"distance":0.21018685012094},{"id":376,"distance":0.21557326399315}]},{"id":225,"status":"Active","latitude":40.74195138,"longitude":-74.00803013,"label":"W 14 St & The High Line","stationAddress":"","availableBikes":31,"availableDocks":1,"nearbyStations":[{"id":212,"distance":0.11558882759232},{"id":404,"distance":0.1623905824114},{"id":405,"distance":0.18167429691981},{"id":463,"distance":0.18854932982385},{"id":434,"distance":0.24367738937253}]},{"id":228,"status":"Active","latitude":40.7546011026,"longitude":-73.971878855,"label":"E 48 St & 3 Ave","stationAddress":"","availableBikes":8,"availableDocks":47,"nearbyStations":[{"id":164,"distance":0.12480566818152},{"id":440,"distance":0.1498684100447},{"id":359,"distance":0.1663352969815},{"id":522,"distance":0.17626502514101},{"id":441,"distance":0.2531741289833}]},{"id":229,"status":"Active","latitude":40.72743423,"longitude":-73.99379025,"label":"Great Jones St","stationAddress":"","availableBikes":17,"availableDocks":0,"nearbyStations":[{"id":335,"distance":0.11170622238965},{"id":375,"distance":0.17130676998406},{"id":300,"distance":0.19359767320291},{"id":250,"distance":0.22120646915759},{"id":439,"distance":0.22459120492157}]},{"id":232,"status":"Active","latitude":40.69597683,"longitude":-73.99014892,"label":"Cadman Plaza E & Tillary St","stationAddress":"","availableBikes":19,"availableDocks":2,"nearbyStations":[{"id":322,"distance":0.057947121243662},{"id":233,"distance":0.086587117913318},{"id":314,"distance":0.14974182388431},{"id":392,"distance":0.16844607215679},{"id":391,"distance":0.20597573572324}]},{"id":233,"status":"Active","latitude":40.694757013639,"longitude":-73.990527391434,"label":"Cadman Plaza W & Pierrepont St","stationAddress":"","availableBikes":34,"availableDocks":3,"nearbyStations":[{"id":314,"distance":0.064057290890598},{"id":232,"distance":0.086587117913318},{"id":322,"distance":0.10554874736325},{"id":392,"distance":0.17732998811606},{"id":143,"distance":0.22126372044446}]},{"id":236,"status":"Active","latitude":40.7284186,"longitude":-73.98713956,"label":"St Marks Pl & 2 Ave","stationAddress":"","availableBikes":8,"availableDocks":29,"nearbyStations":[{"id":438,"distance":0.089259226824795},{"id":237,"distance":0.14362001001787},{"id":300,"distance":0.16209315028145},{"id":326,"distance":0.16913606546036},{"id":439,"distance":0.20234865687254}]},{"id":237,"status":"Active","latitude":40.73047309,"longitude":-73.98672378,"label":"E 11 St & 2 Ave","stationAddress":"","availableBikes":1,"availableDocks":35,"nearbyStations":[{"id":236,"distance":0.14362001001787},{"id":326,"distance":0.14393221973161},{"id":483,"distance":0.16662008311358},{"id":438,"distance":0.19365847977366},{"id":293,"distance":0.21197981206513}]},{"id":238,"status":"Active","latitude":40.7361967,"longitude":-74.00859207,"label":"Bank St & Washington St","stationAddress":"","availableBikes":25,"availableDocks":4,"nearbyStations":[{"id":346,"distance":0.12834351606371},{"id":247,"distance":0.20535231017501},{"id":405,"distance":0.21743502766067},{"id":358,"distance":0.23956776424303},{"id":127,"distance":0.32382238805899}]},{"id":239,"status":"Active","latitude":40.69196566,"longitude":-73.9813018,"label":"Willoughby St & Fleet St","stationAddress":"","availableBikes":10,"availableDocks":19,"nearbyStations":[{"id":324,"distance":0.14435646286096},{"id":390,"distance":0.15721646677731},{"id":261,"distance":0.22757927840681},{"id":431,"distance":0.23974538604315},{"id":245,"distance":0.24084975682262}]},{"id":241,"status":"Active","latitude":40.68981035,"longitude":-73.97493121,"label":"DeKalb Ave & S Portland Ave","stationAddress":"","availableBikes":19,"availableDocks":4,"nearbyStations":[{"id":262,"distance":0.15009117657808},{"id":416,"distance":0.1974880941569},{"id":274,"distance":0.2198602197974},{"id":243,"distance":0.25761260175907},{"id":245,"distance":0.26333349564432}]},{"id":242,"status":"Active","latitude":40.697787,"longitude":-73.973736,"label":"Carlton Ave & Flushing Ave","stationAddress":"","availableBikes":19,"availableDocks":3,"nearbyStations":[{"id":419,"distance":0.13713547704824},{"id":421,"distance":0.1909301881725},{"id":343,"distance":0.20288313783997},{"id":119,"distance":0.25389107805962},{"id":270,"distance":0.34069036248121}]},{"id":243,"status":"Active","latitude":40.688226,"longitude":-73.979382,"label":"Fulton St & Rockwell Pl","stationAddress":"","availableBikes":28,"availableDocks":3,"nearbyStations":[{"id":298,"distance":0.097550489655677},{"id":324,"distance":0.14314579805025},{"id":274,"distance":0.16784859828323},{"id":431,"distance":0.17285938932696},{"id":241,"distance":0.25761260175907}]},{"id":244,"status":"Active","latitude":40.69196035,"longitude":-73.96536851,"label":"Willoughby Ave & Hall St","stationAddress":"","availableBikes":8,"availableDocks":22,"nearbyStations":[{"id":354,"distance":0.20068080858169},{"id":366,"distance":0.205502514255},{"id":399,"distance":0.24014794984335},{"id":258,"distance":0.25391947550591},{"id":313,"distance":0.3074079619417}]},{"id":245,"status":"Active","latitude":40.69327018,"longitude":-73.97703874,"label":"Myrtle Ave & St Edwards St","stationAddress":"","availableBikes":10,"availableDocks":11,"nearbyStations":[{"id":262,"distance":0.20154710298505},{"id":119,"distance":0.20166141956769},{"id":239,"distance":0.24084975682262},{"id":419,"distance":0.25303046647807},{"id":241,"distance":0.26333349564432}]},{"id":247,"status":"Active","latitude":40.73535398,"longitude":-74.00483091,"label":"Perry St & Bleecker St","stationAddress":"","availableBikes":8,"availableDocks":12,"nearbyStations":[{"id":346,"distance":0.10761912172848},{"id":380,"distance":0.13572139724902},{"id":238,"distance":0.20535231017501},{"id":358,"distance":0.20658357529025},{"id":383,"distance":0.23887988053473}]},{"id":248,"status":"Active","latitude":40.72185379,"longitude":-74.00771779,"label":"Laight St & Hudson St","stationAddress":"","availableBikes":4,"availableDocks":18,"nearbyStations":[{"id":377,"distance":0.11485674156003},{"id":329,"distance":0.16310520710649},{"id":328,"distance":0.18298907018723},{"id":79,"distance":0.19705340355185},{"id":249,"distance":0.22739234904149}]},{"id":249,"status":"Active","latitude":40.71870987,"longitude":-74.0090009,"label":"Harrison St & Hudson St","stationAddress":"","availableBikes":18,"availableDocks":7,"nearbyStations":[{"id":276,"distance":0.11373723027312},{"id":79,"distance":0.12541983799964},{"id":329,"distance":0.13482624931861},{"id":146,"distance":0.17005448207038},{"id":320,"distance":0.19716441070025}]},{"id":250,"status":"Active","latitude":40.72456089,"longitude":-73.99565293,"label":"Lafayette St & Jersey St","stationAddress":"","availableBikes":26,"availableDocks":11,"nearbyStations":[{"id":251,"distance":0.10537636711229},{"id":375,"distance":0.16864385703527},{"id":151,"distance":0.20631949134562},{"id":303,"distance":0.21133239669732},{"id":229,"distance":0.22120646915759}]},{"id":251,"status":"Active","latitude":40.72317958,"longitude":-73.99480012,"label":"Mott St & Prince St","stationAddress":"","availableBikes":22,"availableDocks":4,"nearbyStations":[{"id":250,"distance":0.10537636711229},{"id":151,"distance":0.157209678066},{"id":265,"distance":0.1845618087371},{"id":473,"distance":0.20808315466654},{"id":303,"distance":0.24784794525258}]},{"id":252,"status":"Active","latitude":40.73226398,"longitude":-73.99852205,"label":"MacDougal St & Washington Sq","stationAddress":"","availableBikes":7,"availableDocks":26,"nearbyStations":[{"id":369,"distance":0.09121874403421},{"id":336,"distance":0.12662394531932},{"id":294,"distance":0.19095327601716},{"id":280,"distance":0.19339230223449},{"id":254,"distance":0.21318994812116}]},{"id":253,"status":"Active","latitude":40.73543934,"longitude":-73.99453948,"label":"W 13 St & 5 Ave","stationAddress":"","availableBikes":28,"availableDocks":26,"nearbyStations":[{"id":382,"distance":0.13733659666549},{"id":280,"distance":0.14938902978613},{"id":345,"distance":0.15000748476457},{"id":496,"distance":0.16890188693888},{"id":254,"distance":0.18157743323175}]},{"id":254,"status":"Active","latitude":40.73532427,"longitude":-73.99800419,"label":"W 11 St & 6 Ave","stationAddress":"","availableBikes":3,"availableDocks":27,"nearbyStations":[{"id":345,"distance":0.095193538093234},{"id":383,"distance":0.11883410141451},{"id":253,"distance":0.18157743323175},{"id":223,"distance":0.19991065574152},{"id":280,"distance":0.20563699122699}]},{"id":257,"status":"Active","latitude":40.71939226,"longitude":-74.00247214,"label":"Lispenard St & Broadway","stationAddress":"","availableBikes":10,"availableDocks":26,"nearbyStations":[{"id":268,"distance":0.14479310506342},{"id":2010,"distance":0.15647322777146},{"id":320,"distance":0.20445568809859},{"id":79,"distance":0.22049557128084},{"id":377,"distance":0.26877064182231}]},{"id":258,"status":"Active","latitude":40.68940747,"longitude":-73.96885458,"label":"DeKalb Ave & Vanderbilt Ave","stationAddress":"","availableBikes":8,"availableDocks":15,"nearbyStations":[{"id":420,"distance":0.12940277672674},{"id":399,"distance":0.22307100953332},{"id":416,"distance":0.23735971584773},{"id":244,"distance":0.25391947550591},{"id":275,"distance":0.26235954998114}]},{"id":259,"status":"Active","latitude":40.70122128,"longitude":-74.01234218,"label":"South St & Whitehall St","stationAddress":"","availableBikes":15,"availableDocks":18,"nearbyStations":[{"id":534,"distance":0.094001927740422},{"id":427,"distance":0.096271982478572},{"id":260,"distance":0.17151071839638},{"id":304,"distance":0.24504084852761},{"id":337,"distance":0.27324083849908}]},{"id":260,"status":"Active","latitude":40.70365182,"longitude":-74.01167797,"label":"Broad St & Bridge St","stationAddress":"","availableBikes":6,"availableDocks":28,"nearbyStations":[{"id":534,"distance":0.093746203863259},{"id":304,"distance":0.12213434341179},{"id":415,"distance":0.14650239657712},{"id":427,"distance":0.16911714629365},{"id":259,"distance":0.17151071839638}]},{"id":261,"status":"Active","latitude":40.69474881,"longitude":-73.98362464,"label":"Johnson St & Gold St","stationAddress":"","availableBikes":24,"availableDocks":2,"nearbyStations":[{"id":390,"distance":0.17839919869456},{"id":392,"distance":0.18686323030025},{"id":323,"distance":0.21704254025766},{"id":239,"distance":0.22757927840681},{"id":144,"distance":0.29540245285868}]},{"id":262,"status":"Active","latitude":40.6917823,"longitude":-73.9737299,"label":"Washington Park","stationAddress":"","availableBikes":18,"availableDocks":5,"nearbyStations":[{"id":270,"distance":0.13568674119994},{"id":241,"distance":0.15009117657808},{"id":245,"distance":0.20154710298505},{"id":366,"distance":0.27308786407923},{"id":419,"distance":0.27825023131726}]},{"id":263,"status":"Active","latitude":40.71729,"longitude":-73.996375,"label":"Elizabeth St & Hester St","stationAddress":"","availableBikes":27,"availableDocks":2,"nearbyStations":[{"id":412,"distance":0.15190479056871},{"id":355,"distance":0.19701009054637},{"id":268,"distance":0.21602947513625},{"id":296,"distance":0.22110422914705},{"id":531,"distance":0.225338960346}]},{"id":264,"status":"Active","latitude":40.70706456,"longitude":-74.00731853,"label":"Maiden Ln & Pearl St","stationAddress":"","availableBikes":8,"availableDocks":19,"nearbyStations":[{"id":360,"distance":0.081812251257744},{"id":376,"distance":0.10769648797763},{"id":306,"distance":0.13308860855681},{"id":351,"distance":0.1364169082055},{"id":316,"distance":0.17720421382727}]},{"id":265,"status":"Active","latitude":40.72229346,"longitude":-73.99147535,"label":"Stanton St & Chrystie St","stationAddress":"","availableBikes":29,"availableDocks":3,"nearbyStations":[{"id":473,"distance":0.085725124260692},{"id":312,"distance":0.12490737294761},{"id":401,"distance":0.16479093414699},{"id":251,"distance":0.1845618087371},{"id":403,"distance":0.19335256342384}]},{"id":266,"status":"Active","latitude":40.72368361,"longitude":-73.97574813,"label":"Avenue D & E 8 St","stationAddress":"","availableBikes":2,"availableDocks":20,"nearbyStations":[{"id":411,"distance":0.10868484272873},{"id":394,"distance":0.14657190311529},{"id":339,"distance":0.16694848461428},{"id":393,"distance":0.22540581436386},{"id":302,"distance":0.22803527582911}]},{"id":267,"status":"Active","latitude":40.75097711,"longitude":-73.98765428,"label":"Broadway & W 36 St","stationAddress":"","availableBikes":6,"availableDocks":49,"nearbyStations":[{"id":362,"distance":0.052142320969984},{"id":533,"distance":0.14140059535313},{"id":505,"distance":0.14251393339165},{"id":498,"distance":0.16930487924844},{"id":492,"distance":0.17972358151162}]},{"id":268,"status":"Active","latitude":40.71910537,"longitude":-73.99973337,"label":"Howard St & Centre St","stationAddress":"","availableBikes":13,"availableDocks":14,"nearbyStations":[{"id":257,"distance":0.14479310506342},{"id":355,"distance":0.21311077029038},{"id":263,"distance":0.21602947513625},{"id":2010,"distance":0.2230966840686},{"id":151,"distance":0.2294213912273}]},{"id":270,"status":"Active","latitude":40.69308257,"longitude":-73.97178913,"label":"Adelphi St & Myrtle Ave","stationAddress":"","availableBikes":11,"availableDocks":11,"nearbyStations":[{"id":262,"distance":0.13568674119994},{"id":366,"distance":0.15207348103915},{"id":421,"distance":0.18501365275885},{"id":419,"distance":0.20977448265508},{"id":245,"distance":0.27533565200158}]},{"id":271,"status":"Inactive","latitude":40.68528172,"longitude":-73.97805813,"label":"Ashland Pl & Hanson Pl","stationAddress":"","availableBikes":0,"availableDocks":7,"nearbyStations":[{"id":274,"distance":0.13413567724166},{"id":83,"distance":0.13557374684889},{"id":298,"distance":0.13664797791366},{"id":467,"distance":0.15620834456425},{"id":353,"distance":0.19630793091693}]},{"id":274,"status":"Active","latitude":40.68691865,"longitude":-73.976682,"label":"Lafayette Ave & Fort Greene Pl","stationAddress":"","availableBikes":20,"availableDocks":9,"nearbyStations":[{"id":298,"distance":0.1570491768922},{"id":353,"distance":0.1626686056443},{"id":243,"distance":0.16784859828323},{"id":83,"distance":0.21451690240628},{"id":416,"distance":0.21540103035443}]},{"id":275,"status":"Active","latitude":40.68650065,"longitude":-73.96563307,"label":"Washington Ave & Greene Ave","stationAddress":"","availableBikes":15,"availableDocks":3,"nearbyStations":[{"id":399,"distance":0.14648770790953},{"id":420,"distance":0.22674316032936},{"id":384,"distance":0.24151846666958},{"id":397,"distance":0.24817451772956},{"id":258,"distance":0.26235954998114}]},{"id":276,"status":"Active","latitude":40.71748752,"longitude":-74.0104554,"label":"Duane St & Greenwich St","stationAddress":"","availableBikes":20,"availableDocks":3,"nearbyStations":[{"id":146,"distance":0.11093263553555},{"id":249,"distance":0.11373723027312},{"id":426,"distance":0.14488327275341},{"id":147,"distance":0.1482325079995},{"id":152,"distance":0.20257391041406}]},{"id":278,"status":"Inactive","latitude":40.69766564,"longitude":-73.98476437,"label":"Concord St & Bridge St","stationAddress":"","availableBikes":0,"availableDocks":3,"nearbyStations":[{"id":261,"distance":0.21020430910779},{"id":392,"distance":0.21939557371666},{"id":144,"distance":0.21941895810424},{"id":430,"distance":0.28034142299041},{"id":2001,"distance":0.29226834595468}]},{"id":279,"status":"Active","latitude":40.707873,"longitude":-74.00167,"label":"Peck Slip & Front St","stationAddress":"","availableBikes":14,"availableDocks":19,"nearbyStations":[{"id":306,"distance":0.19180662722517},{"id":82,"distance":0.24133136604372},{"id":316,"distance":0.28025709103068},{"id":351,"distance":0.29299482152007},{"id":376,"distance":0.29534680478038}]},{"id":280,"status":"Active","latitude":40.73331967,"longitude":-73.99510132,"label":"E 10 St & 5 Ave","stationAddress":"","availableBikes":0,"availableDocks":29,"nearbyStations":[{"id":253,"distance":0.14938902978613},{"id":357,"distance":0.19062260138526},{"id":252,"distance":0.19339230223449},{"id":382,"distance":0.19650694890263},{"id":294,"distance":0.19793283401038}]},{"id":281,"status":"Active","latitude":40.7643971,"longitude":-73.97371465,"label":"Grand Army Plaza & Central Park S","stationAddress":"","availableBikes":14,"availableDocks":39,"nearbyStations":[{"id":2006,"distance":0.17267891008215},{"id":137,"distance":0.19576137253846},{"id":352,"distance":0.19604961541928},{"id":456,"distance":0.32421418623952},{"id":520,"distance":0.34148817320535}]},{"id":282,"status":"Active","latitude":40.70827295,"longitude":-73.96834101,"label":"Kent Ave & S 11 St","stationAddress":"","availableBikes":10,"availableDocks":17,"nearbyStations":[{"id":389,"distance":0.22076536584054},{"id":443,"distance":0.22339281542898},{"id":2005,"distance":0.24752179865737},{"id":460,"distance":0.34163919998899},{"id":532,"distance":0.41896514209625}]},{"id":284,"status":"Active","latitude":40.7390169121,"longitude":-74.0026376103,"label":"Greenwich Ave & 8 Ave","stationAddress":"","availableBikes":9,"availableDocks":33,"nearbyStations":[{"id":223,"distance":0.16354020841943},{"id":482,"distance":0.17537199581511},{"id":404,"distance":0.18519592855677},{"id":116,"distance":0.19977437482364},{"id":463,"distance":0.23063532377191}]},{"id":285,"status":"Active","latitude":40.73454567,"longitude":-73.99074142,"label":"Broadway & E 14 St","stationAddress":"","availableBikes":2,"availableDocks":37,"nearbyStations":[{"id":382,"distance":0.071215502287076},{"id":357,"distance":0.14026308610366},{"id":475,"distance":0.17210884770527},{"id":497,"distance":0.17633153542913},{"id":483,"distance":0.18666110238769}]},{"id":289,"status":"Active","latitude":40.6845683,"longitude":-73.95881081,"label":"Monroe St & Classon Ave","stationAddress":"","availableBikes":6,"availableDocks":12,"nearbyStations":[{"id":120,"distance":0.15397856356308},{"id":365,"distance":0.21286719524068},{"id":344,"distance":0.26508341580427},{"id":436,"distance":0.30226323687129},{"id":364,"distance":0.31552206075719}]},{"id":290,"status":"Active","latitude":40.76020258,"longitude":-73.96478473,"label":"2 Ave & E 58 St","stationAddress":"","availableBikes":1,"availableDocks":28,"nearbyStations":[{"id":305,"distance":0.13891470907403},{"id":385,"distance":0.16732693013384},{"id":2023,"distance":0.29161053575533},{"id":2022,"distance":0.30077412084547},{"id":441,"distance":0.32051679981785}]},{"id":291,"status":"Active","latitude":40.713126,"longitude":-73.984844,"label":"Madison St & Montgomery St","stationAddress":"","availableBikes":13,"availableDocks":6,"nearbyStations":[{"id":340,"distance":0.15582916976086},{"id":502,"distance":0.19805703706315},{"id":350,"distance":0.2054482563912},{"id":356,"distance":0.24404953949332},{"id":307,"distance":0.27646093864412}]},{"id":293,"status":"Active","latitude":40.73028666,"longitude":-73.9907647,"label":"Lafayette St & E 8 St","stationAddress":"","availableBikes":24,"availableDocks":29,"nearbyStations":[{"id":300,"distance":0.15076682519517},{"id":483,"distance":0.16618971568254},{"id":357,"distance":0.16664753450305},{"id":335,"distance":0.19224842178907},{"id":237,"distance":0.21197981206513}]},{"id":294,"status":"Active","latitude":40.73049393,"longitude":-73.9957214,"label":"Washington Square E","stationAddress":"","availableBikes":10,"availableDocks":20,"nearbyStations":[{"id":335,"distance":0.13340120073137},{"id":161,"distance":0.15462141108544},{"id":336,"distance":0.17485106952955},{"id":252,"distance":0.19095327601716},{"id":280,"distance":0.19793283401038}]},{"id":295,"status":"Active","latitude":40.71406667,"longitude":-73.99293911,"label":"Pike St & E Broadway","stationAddress":"","availableBikes":7,"availableDocks":17,"nearbyStations":[{"id":412,"distance":0.13830545852715},{"id":361,"distance":0.14786430564596},{"id":307,"distance":0.15980642771495},{"id":331,"distance":0.16981130183835},{"id":296,"distance":0.21518258317858}]},{"id":296,"status":"Active","latitude":40.71413089,"longitude":-73.9970468,"label":"Division St & Bowery","stationAddress":"","availableBikes":28,"availableDocks":7,"nearbyStations":[{"id":308,"distance":0.10568614383942},{"id":412,"distance":0.18817923150514},{"id":355,"distance":0.19238194945722},{"id":2009,"distance":0.20461006288824},{"id":295,"distance":0.21518258317858}]},{"id":297,"status":"Active","latitude":40.734232,"longitude":-73.986923,"label":"E 15 St & 3 Ave","stationAddress":"","availableBikes":3,"availableDocks":23,"nearbyStations":[{"id":475,"distance":0.077983151877005},{"id":483,"distance":0.17261122738359},{"id":325,"distance":0.18012218974315},{"id":285,"distance":0.20109698551546},{"id":497,"distance":0.25584474504303}]},{"id":298,"status":"Active","latitude":40.68683208,"longitude":-73.9796772,"label":"3 Ave & Schermerhorn St","stationAddress":"","availableBikes":33,"availableDocks":1,"nearbyStations":[{"id":243,"distance":0.097550489655677},{"id":274,"distance":0.1570491768922},{"id":431,"distance":0.19930131740651},{"id":324,"distance":0.22245343600372},{"id":467,"distance":0.25896571595696}]},{"id":300,"status":"Active","latitude":40.728145,"longitude":-73.990214,"label":"Shevchenko Pl & E 7 St","stationAddress":"","availableBikes":41,"availableDocks":13,"nearbyStations":[{"id":439,"distance":0.13080416838823},{"id":293,"distance":0.15076682519517},{"id":236,"distance":0.16209315028145},{"id":229,"distance":0.19359767320291},{"id":335,"distance":0.20997558980688}]},{"id":301,"status":"Active","latitude":40.72217444,"longitude":-73.98368779,"label":"E 2 St & Avenue B","stationAddress":"","availableBikes":18,"availableDocks":16,"nearbyStations":[{"id":410,"distance":0.13035059095587},{"id":150,"distance":0.17332267162254},{"id":317,"distance":0.18941128976833},{"id":393,"distance":0.20349461794957},{"id":400,"distance":0.22474644562919}]},{"id":302,"status":"Active","latitude":40.72082834,"longitude":-73.97793172,"label":"Avenue D & E 3 St","stationAddress":"","availableBikes":13,"availableDocks":9,"nearbyStations":[{"id":411,"distance":0.11967338600139},{"id":150,"distance":0.15327521004094},{"id":393,"distance":0.18323680614899},{"id":341,"distance":0.22486884206569},{"id":266,"distance":0.22803527582911}]},{"id":303,"status":"Active","latitude":40.72362738,"longitude":-73.99949601,"label":"Mercer St & Spring St","stationAddress":"","availableBikes":20,"availableDocks":6,"nearbyStations":[{"id":348,"distance":0.13924165129125},{"id":151,"distance":0.17345618840289},{"id":2010,"distance":0.20217229166577},{"id":250,"distance":0.21133239669732},{"id":251,"distance":0.24784794525258}]},{"id":304,"status":"Active","latitude":40.70463334,"longitude":-74.01361706,"label":"Broadway & Battery Pl","stationAddress":"","availableBikes":29,"availableDocks":7,"nearbyStations":[{"id":260,"distance":0.12213434341179},{"id":534,"distance":0.15133118567184},{"id":2008,"distance":0.18097305642916},{"id":427,"distance":0.18915091617721},{"id":415,"distance":0.22828995171661}]},{"id":305,"status":"Active","latitude":40.76095756,"longitude":-73.96724467,"label":"E 58 St & 3 Ave","stationAddress":"","availableBikes":5,"availableDocks":27,"nearbyStations":[{"id":290,"distance":0.13891470907403},{"id":2023,"distance":0.18325516815257},{"id":385,"distance":0.21574064235998},{"id":367,"distance":0.25847804649687},{"id":137,"distance":0.30082756739429}]},{"id":306,"status":"Active","latitude":40.70823502,"longitude":-74.00530063,"label":"Cliff St & Fulton St","stationAddress":"","availableBikes":11,"availableDocks":26,"nearbyStations":[{"id":376,"distance":0.10409822061479},{"id":316,"distance":0.11208999994507},{"id":264,"distance":0.13308860855681},{"id":279,"distance":0.19180662722517},{"id":360,"distance":0.20083679853097}]},{"id":307,"status":"Active","latitude":40.71427487,"longitude":-73.98990025,"label":"Canal St & Rutgers St","stationAddress":"","availableBikes":13,"availableDocks":14,"nearbyStations":[{"id":340,"distance":0.15656816769251},{"id":295,"distance":0.15980642771495},{"id":361,"distance":0.16200147903014},{"id":350,"distance":0.17586163823095},{"id":331,"distance":0.20542996405541}]},{"id":308,"status":"Active","latitude":40.71307916,"longitude":-73.99851193,"label":"St James Pl & Oliver St","stationAddress":"","availableBikes":26,"availableDocks":0,"nearbyStations":[{"id":296,"distance":0.10568614383942},{"id":82,"distance":0.15756584934213},{"id":2009,"distance":0.15848359215337},{"id":355,"distance":0.2132777243668},{"id":386,"distance":0.23869400300799}]},{"id":309,"status":"Active","latitude":40.7149787,"longitude":-74.013012,"label":"Murray St & West St","stationAddress":"","availableBikes":38,"availableDocks":0,"nearbyStations":[{"id":147,"distance":0.098735339145773},{"id":426,"distance":0.17789199125814},{"id":327,"distance":0.18869291075908},{"id":417,"distance":0.20504272507933},{"id":152,"distance":0.20522125901603}]},{"id":310,"status":"Active","latitude":40.68926942,"longitude":-73.98912867,"label":"State St & Smith St","stationAddress":"","availableBikes":33,"availableDocks":0,"nearbyStations":[{"id":218,"distance":0.12860918431805},{"id":323,"distance":0.25951893304037},{"id":143,"distance":0.31021681212551},{"id":314,"distance":0.32367193001156},{"id":390,"distance":0.32537171348762}]},{"id":311,"status":"Active","latitude":40.7172274,"longitude":-73.98802084,"label":"Norfolk St & Broome St","stationAddress":"","availableBikes":6,"availableDocks":24,"nearbyStations":[{"id":350,"distance":0.12416459975102},{"id":361,"distance":0.21899170279634},{"id":307,"distance":0.22651635687203},{"id":401,"distance":0.22929697768014},{"id":349,"distance":0.26252650169539}]},{"id":312,"status":"Active","latitude":40.722055,"longitude":-73.989111,"label":"Allen St & E Houston St","stationAddress":"","availableBikes":20,"availableDocks":9,"nearbyStations":[{"id":265,"distance":0.12490737294761},{"id":401,"distance":0.13626062877418},{"id":473,"distance":0.16146553956379},{"id":428,"distance":0.19313272310054},{"id":403,"distance":0.22162120943945}]},{"id":313,"status":"Active","latitude":40.69610226,"longitude":-73.96751037,"label":"Washington Ave & Park Ave","stationAddress":"","availableBikes":15,"availableDocks":8,"nearbyStations":[{"id":343,"distance":0.177160533253},{"id":421,"distance":0.19998459592309},{"id":366,"distance":0.20931518269677},{"id":270,"distance":0.30624311875795},{"id":244,"distance":0.3074079619417}]},{"id":314,"status":"Active","latitude":40.69383,"longitude":-73.990539,"label":"Cadman Plaza West & Montague St","stationAddress":"","availableBikes":23,"availableDocks":12,"nearbyStations":[{"id":233,"distance":0.064057290890598},{"id":232,"distance":0.14974182388431},{"id":322,"distance":0.16704010930726},{"id":143,"distance":0.1788048218734},{"id":392,"distance":0.1961890062147}]},{"id":315,"status":"Active","latitude":40.70355377,"longitude":-74.00670227,"label":"South St & Gouverneur Ln","stationAddress":"","availableBikes":0,"availableDocks":25,"nearbyStations":[{"id":337,"distance":0.089852446877868},{"id":351,"distance":0.12502198125738},{"id":415,"distance":0.15627637731082},{"id":264,"distance":0.24472541363156},{"id":260,"distance":0.26072723873976}]},{"id":316,"status":"Active","latitude":40.70955958,"longitude":-74.00653609,"label":"Fulton St & William St","stationAddress":"","availableBikes":8,"availableDocks":33,"nearbyStations":[{"id":376,"distance":0.074102079065461},{"id":306,"distance":0.11208999994507},{"id":224,"distance":0.14183858138306},{"id":264,"distance":0.17720421382727},{"id":319,"distance":0.18460862544548}]},{"id":317,"status":"Active","latitude":40.72453734,"longitude":-73.98185424,"label":"E 6 St & Avenue B","stationAddress":"","availableBikes":13,"availableDocks":14,"nearbyStations":[{"id":393,"distance":0.14593080514553},{"id":432,"distance":0.15443545255748},{"id":301,"distance":0.18941128976833},{"id":445,"distance":0.19965030241039},{"id":394,"distance":0.22313355912359}]},{"id":318,"status":"Active","latitude":40.75320159,"longitude":-73.9779874,"label":"E 43 St & Vanderbilt Ave","stationAddress":"","availableBikes":0,"availableDocks":30,"nearbyStations":[{"id":519,"distance":0.092976523125882},{"id":517,"distance":0.11205212236891},{"id":484,"distance":0.16802501609985},{"id":359,"distance":0.20474487183428},{"id":153,"distance":0.206395913908}]},{"id":319,"status":"Active","latitude":40.711066,"longitude":-74.009447,"label":"Fulton St & Broadway","stationAddress":"","availableBikes":0,"availableDocks":31,"nearbyStations":[{"id":417,"distance":0.13356424117263},{"id":195,"distance":0.14817723799072},{"id":316,"distance":0.18460862544548},{"id":376,"distance":0.2052281677344},{"id":224,"distance":0.20728748336186}]},{"id":320,"status":"Active","latitude":40.717571,"longitude":-74.005549,"label":"Leonard St & Church St","stationAddress":"","availableBikes":6,"availableDocks":32,"nearbyStations":[{"id":79,"distance":0.12171890974379},{"id":249,"distance":0.19716441070025},{"id":257,"distance":0.20445568809859},{"id":146,"distance":0.2074404821622},{"id":330,"distance":0.21192733254596}]},{"id":321,"status":"Active","latitude":40.69991755,"longitude":-73.98971773,"label":"Cadman Plaza E & Red Cross Pl","stationAddress":"","availableBikes":3,"availableDocks":23,"nearbyStations":[{"id":2000,"distance":0.18270517568745},{"id":430,"distance":0.19731703199346},{"id":414,"distance":0.22765761043778},{"id":391,"distance":0.25249436138714},{"id":322,"distance":0.26915696850945}]},{"id":322,"status":"Active","latitude":40.696192,"longitude":-73.991218,"label":"Clinton St & Tillary St","stationAddress":"","availableBikes":28,"availableDocks":2,"nearbyStations":[{"id":232,"distance":0.057947121243662},{"id":233,"distance":0.10554874736325},{"id":391,"distance":0.1519894836932},{"id":314,"distance":0.16704010930726},{"id":392,"distance":0.22606265163014}]},{"id":323,"status":"Active","latitude":40.69236178,"longitude":-73.98631746,"label":"Lawrence St & Willoughby St","stationAddress":"","availableBikes":26,"availableDocks":9,"nearbyStations":[{"id":390,"distance":0.10699064531352},{"id":218,"distance":0.14887485917517},{"id":392,"distance":0.19201542529164},{"id":261,"distance":0.21704254025766},{"id":314,"distance":0.24332710240063}]},{"id":324,"status":"Active","latitude":40.689888,"longitude":-73.981013,"label":"DeKalb Ave & Hudson Ave","stationAddress":"","availableBikes":30,"availableDocks":18,"nearbyStations":[{"id":431,"distance":0.12073268744573},{"id":243,"distance":0.14314579805025},{"id":239,"distance":0.14435646286096},{"id":298,"distance":0.22245343600372},{"id":390,"distance":0.23505289555877}]},{"id":325,"status":"Active","latitude":40.73624527,"longitude":-73.98473765,"label":"E 19 St & 3 Ave","stationAddress":"","availableBikes":0,"availableDocks":35,"nearbyStations":[{"id":461,"distance":0.14298807809697},{"id":475,"distance":0.164415843801},{"id":297,"distance":0.18012218974315},{"id":503,"distance":0.20216716693694},{"id":2003,"distance":0.27653277193813}]},{"id":326,"status":"Active","latitude":40.72953837,"longitude":-73.98426726,"label":"E 11 St & 1 Ave","stationAddress":"","availableBikes":1,"availableDocks":23,"nearbyStations":[{"id":438,"distance":0.14075421760821},{"id":237,"distance":0.14393221973161},{"id":236,"distance":0.16913606546036},{"id":433,"distance":0.19346844713325},{"id":445,"distance":0.20951648079992}]},{"id":327,"status":"Active","latitude":40.7153379,"longitude":-74.01658354,"label":"Vesey Pl & River Terrace","stationAddress":"","availableBikes":1,"availableDocks":35,"nearbyStations":[{"id":309,"distance":0.18869291075908},{"id":426,"distance":0.23312367687465},{"id":3002,"distance":0.2678898844349},{"id":147,"distance":0.28097708864218},{"id":276,"distance":0.35364945701538}]},{"id":328,"status":"Active","latitude":40.72405549,"longitude":-74.00965965,"label":"Watts St & Greenwich St","stationAddress":"","availableBikes":11,"availableDocks":10,"nearbyStations":[{"id":248,"distance":0.18298907018723},{"id":377,"distance":0.23719988178215},{"id":329,"distance":0.25185953356722},{"id":2004,"distance":0.26059175301199},{"id":347,"distance":0.33570944054176}]},{"id":329,"status":"Active","latitude":40.72043411,"longitude":-74.01020609,"label":"Greenwich St & N Moore St","stationAddress":"","availableBikes":17,"availableDocks":10,"nearbyStations":[{"id":249,"distance":0.13482624931861},{"id":248,"distance":0.16310520710649},{"id":276,"distance":0.2040204606961},{"id":79,"distance":0.20654338246413},{"id":328,"distance":0.25185953356722}]},{"id":330,"status":"Active","latitude":40.71450451,"longitude":-74.00562789,"label":"Reade St & Broadway","stationAddress":"","availableBikes":5,"availableDocks":34,"nearbyStations":[{"id":387,"distance":0.13359063229432},{"id":386,"distance":0.17465660168633},{"id":152,"distance":0.18290062518564},{"id":224,"distance":0.21018685012094},{"id":320,"distance":0.21192733254596}]},{"id":331,"status":"Active","latitude":40.71173107,"longitude":-73.99193043,"label":"Pike St & Monroe St","stationAddress":"","availableBikes":12,"availableDocks":12,"nearbyStations":[{"id":408,"distance":0.1275780984924},{"id":295,"distance":0.16981130183835},{"id":307,"distance":0.20542996405541},{"id":340,"distance":0.22810423271988},{"id":2009,"distance":0.25929000275131}]},{"id":332,"status":"Active","latitude":40.71219906,"longitude":-73.97948148,"label":"Cherry St","stationAddress":"","availableBikes":2,"availableDocks":22,"nearbyStations":[{"id":502,"distance":0.17011713296173},{"id":291,"distance":0.28807403639234},{"id":356,"distance":0.3229926999429},{"id":342,"distance":0.36113529089375},{"id":341,"distance":0.42293685712043}]},{"id":334,"status":"Active","latitude":40.74238787,"longitude":-73.99726235,"label":"W 20 St & 7 Ave","stationAddress":"","availableBikes":7,"availableDocks":23,"nearbyStations":[{"id":470,"distance":0.16300365935285},{"id":435,"distance":0.16870102124163},{"id":453,"distance":0.19098765339255},{"id":446,"distance":0.20032937974366},{"id":116,"distance":0.22571172605414}]},{"id":335,"status":"Active","latitude":40.72903917,"longitude":-73.99404649,"label":"Washington Pl & Broadway","stationAddress":"","availableBikes":7,"availableDocks":20,"nearbyStations":[{"id":229,"distance":0.11170622238965},{"id":294,"distance":0.13340120073137},{"id":293,"distance":0.19224842178907},{"id":300,"distance":0.20997558980688},{"id":161,"distance":0.21256534464713}]},{"id":336,"status":"Active","latitude":40.73047747,"longitude":-73.99906065,"label":"Sullivan St & Washington Sq","stationAddress":"","availableBikes":34,"availableDocks":1,"nearbyStations":[{"id":161,"distance":0.10332866317703},{"id":252,"distance":0.12662394531932},{"id":369,"distance":0.13719193960375},{"id":368,"distance":0.16187959563512},{"id":294,"distance":0.17485106952955}]},{"id":337,"status":"Active","latitude":40.7037992,"longitude":-74.00838676,"label":"Old Slip & Front St","stationAddress":"","availableBikes":0,"availableDocks":36,"nearbyStations":[{"id":415,"distance":0.078240475695317},{"id":315,"distance":0.089852446877868},{"id":351,"distance":0.15785601475224},{"id":260,"distance":0.17270172830602},{"id":264,"distance":0.23246326665499}]},{"id":339,"status":"Active","latitude":40.72580614,"longitude":-73.97422494,"label":"Avenue D & E 12 St","stationAddress":"","availableBikes":2,"availableDocks":21,"nearbyStations":[{"id":266,"distance":0.16694848461428},{"id":394,"distance":0.18589125907647},{"id":411,"distance":0.2756063500362},{"id":511,"distance":0.30788337086776},{"id":393,"distance":0.35753947550598}]},{"id":340,"status":"Active","latitude":40.71269042,"longitude":-73.98776323,"label":"Madison St & Clinton St","stationAddress":"","availableBikes":13,"availableDocks":14,"nearbyStations":[{"id":291,"distance":0.15582916976086},{"id":307,"distance":0.15656816769251},{"id":350,"distance":0.20435145755766},{"id":331,"distance":0.22810423271988},{"id":295,"distance":0.28728106644331}]},{"id":341,"status":"Active","latitude":40.71782143,"longitude":-73.97628939,"label":"Stanton St & Mangin St","stationAddress":"","availableBikes":13,"availableDocks":6,"nearbyStations":[{"id":342,"distance":0.20508051912457},{"id":302,"distance":0.22486884206569},{"id":400,"distance":0.30427337438066},{"id":411,"distance":0.30883960608102},{"id":150,"distance":0.31893737503742}]},{"id":342,"status":"Active","latitude":40.71739973,"longitude":-73.98016555,"label":"Columbia St & Rivington St","stationAddress":"","availableBikes":10,"availableDocks":18,"nearbyStations":[{"id":356,"distance":0.15162305208364},{"id":400,"distance":0.15390844469735},{"id":349,"distance":0.18089960914784},{"id":341,"distance":0.20508051912457},{"id":502,"distance":0.22857667113568}]},{"id":343,"status":"Active","latitude":40.69794,"longitude":-73.96986848,"label":"Clinton Ave & Flushing Ave","stationAddress":"","availableBikes":19,"availableDocks":2,"nearbyStations":[{"id":421,"distance":0.16980330437595},{"id":313,"distance":0.177160533253},{"id":242,"distance":0.20288313783997},{"id":419,"distance":0.24296889484835},{"id":366,"distance":0.32729711087814}]},{"id":344,"status":"Active","latitude":40.6851443,"longitude":-73.95380904,"label":"Monroe St & Bedford Ave","stationAddress":"","availableBikes":15,"availableDocks":8,"nearbyStations":[{"id":436,"distance":0.20603713946659},{"id":289,"distance":0.26508341580427},{"id":120,"distance":0.3079117625461},{"id":396,"distance":0.34732770406175},{"id":437,"distance":0.34856824399853}]},{"id":345,"status":"Active","latitude":40.73649403,"longitude":-73.99704374,"label":"W 13 St & 6 Ave","stationAddress":"","availableBikes":17,"availableDocks":14,"nearbyStations":[{"id":254,"distance":0.095193538093234},{"id":253,"distance":0.15000748476457},{"id":223,"distance":0.17728835940053},{"id":383,"distance":0.18995539040131},{"id":482,"distance":0.23079597170275}]},{"id":346,"status":"Active","latitude":40.73652889,"longitude":-74.00618026,"label":"Bank St & Hudson St","stationAddress":"","availableBikes":15,"availableDocks":12,"nearbyStations":[{"id":247,"distance":0.10761912172848},{"id":238,"distance":0.12834351606371},{"id":405,"distance":0.21812277775813},{"id":380,"distance":0.24302752104341},{"id":284,"distance":0.25289732536754}]},{"id":347,"status":"Active","latitude":40.728846,"longitude":-74.008591,"label":"Greenwich St & W Houston St","stationAddress":"","availableBikes":13,"availableDocks":21,"nearbyStations":[{"id":127,"distance":0.2211416015108},{"id":358,"distance":0.29163810673863},{"id":128,"distance":0.31798954390798},{"id":328,"distance":0.33570944054176},{"id":368,"distance":0.35365775072446}]},{"id":348,"status":"Active","latitude":40.72490985,"longitude":-74.00154702,"label":"W Broadway & Spring St","stationAddress":"","availableBikes":34,"availableDocks":7,"nearbyStations":[{"id":303,"distance":0.13924165129125},{"id":128,"distance":0.16886445888575},{"id":2004,"distance":0.16904441572883},{"id":2010,"distance":0.22878711555318},{"id":375,"distance":0.27364733996271}]},{"id":349,"status":"Active","latitude":40.71850211,"longitude":-73.98329859,"label":"Rivington St & Ridge St","stationAddress":"","availableBikes":7,"availableDocks":15,"nearbyStations":[{"id":400,"distance":0.095242849731237},{"id":356,"distance":0.1613015628207},{"id":410,"distance":0.17896672462299},{"id":342,"distance":0.18089960914784},{"id":150,"distance":0.20781807255038}]},{"id":350,"status":"Active","latitude":40.71559509,"longitude":-73.9870295,"label":"Clinton St & Grand St","stationAddress":"","availableBikes":7,"availableDocks":20,"nearbyStations":[{"id":311,"distance":0.12416459975102},{"id":307,"distance":0.17586163823095},{"id":340,"distance":0.20435145755766},{"id":291,"distance":0.2054482563912},{"id":356,"distance":0.23543051362963}]},{"id":351,"status":"Active","latitude":40.70530954,"longitude":-74.00612572,"label":"Front St & Maiden Ln","stationAddress":"","availableBikes":3,"availableDocks":35,"nearbyStations":[{"id":315,"distance":0.12502198125738},{"id":264,"distance":0.1364169082055},{"id":337,"distance":0.15785601475224},{"id":415,"distance":0.16920796442234},{"id":360,"distance":0.19339613387197}]},{"id":352,"status":"Active","latitude":40.76340613,"longitude":-73.97722479,"label":"W 56 St & 6 Ave","stationAddress":"","availableBikes":26,"availableDocks":9,"nearbyStations":[{"id":2006,"distance":0.17903761711015},{"id":281,"distance":0.19604961541928},{"id":520,"distance":0.24379492284438},{"id":510,"distance":0.25295458584298},{"id":137,"distance":0.25643627686617}]},{"id":353,"status":"Active","latitude":40.68539567,"longitude":-73.97431458,"label":"S Portland Ave & Hanson Pl","stationAddress":"","availableBikes":26,"availableDocks":1,"nearbyStations":[{"id":83,"distance":0.15113153503399},{"id":274,"distance":0.1626686056443},{"id":416,"distance":0.17152964833152},{"id":397,"distance":0.28018104036057},{"id":420,"distance":0.28790866670356}]},{"id":354,"status":"Active","latitude":40.69363137,"longitude":-73.96223558,"label":"Emerson Pl & Myrtle Ave","stationAddress":"","availableBikes":3,"availableDocks":20,"nearbyStations":[{"id":244,"distance":0.20068080858169},{"id":372,"distance":0.22590081002092},{"id":313,"distance":0.32483037386674},{"id":364,"distance":0.33639555750303},{"id":366,"distance":0.34987930203832}]},{"id":355,"status":"Active","latitude":40.71602118,"longitude":-73.99974372,"label":"Bayard St & Baxter St","stationAddress":"","availableBikes":7,"availableDocks":32,"nearbyStations":[{"id":386,"distance":0.15510022179284},{"id":296,"distance":0.19238194945722},{"id":263,"distance":0.19701009054637},{"id":268,"distance":0.21311077029038},{"id":308,"distance":0.2132777243668}]},{"id":356,"status":"Active","latitude":40.71622644,"longitude":-73.98261206,"label":"Bialystoker Pl & Delancey St","stationAddress":"","availableBikes":1,"availableDocks":22,"nearbyStations":[{"id":342,"distance":0.15162305208364},{"id":502,"distance":0.15399260701261},{"id":349,"distance":0.1613015628207},{"id":400,"distance":0.21414550355493},{"id":350,"distance":0.23543051362963}]},{"id":357,"status":"Active","latitude":40.73261787,"longitude":-73.99158043,"label":"E 11 St & Broadway","stationAddress":"","availableBikes":4,"availableDocks":22,"nearbyStations":[{"id":285,"distance":0.14026308610366},{"id":483,"distance":0.142869676206},{"id":382,"distance":0.16109367633125},{"id":293,"distance":0.16664753450305},{"id":280,"distance":0.19062260138526}]},{"id":358,"status":"Active","latitude":40.73291553,"longitude":-74.00711384,"label":"Christopher St & Greenwich St","stationAddress":"","availableBikes":29,"availableDocks":2,"nearbyStations":[{"id":127,"distance":0.084555375636379},{"id":247,"distance":0.20658357529025},{"id":380,"distance":0.23134615934174},{"id":238,"distance":0.23956776424303},{"id":346,"distance":0.25441426232456}]},{"id":359,"status":"Active","latitude":40.75510267,"longitude":-73.97498696,"label":"E 47 St & Park Ave","stationAddress":"","availableBikes":3,"availableDocks":51,"nearbyStations":[{"id":228,"distance":0.1663352969815},{"id":318,"distance":0.20474487183428},{"id":522,"distance":0.20770658005997},{"id":440,"distance":0.20927612886113},{"id":519,"distance":0.26468346668208}]},{"id":360,"status":"Active","latitude":40.70717936,"longitude":-74.00887308,"label":"William St & Pine St","stationAddress":"","availableBikes":2,"availableDocks":36,"nearbyStations":[{"id":264,"distance":0.081812251257744},{"id":376,"distance":0.13195490046519},{"id":195,"distance":0.15330295019711},{"id":415,"distance":0.17129960970587},{"id":351,"distance":0.19339613387197}]},{"id":361,"status":"Active","latitude":40.71605866,"longitude":-73.99190759,"label":"Allen St & Hester St","stationAddress":"","availableBikes":29,"availableDocks":12,"nearbyStations":[{"id":412,"distance":0.12245700125989},{"id":295,"distance":0.14786430564596},{"id":307,"distance":0.16200147903014},{"id":531,"distance":0.20291997762767},{"id":311,"distance":0.21899170279634}]},{"id":362,"status":"Active","latitude":40.75172632,"longitude":-73.98753523,"label":"Broadway & W 37 St","stationAddress":"","availableBikes":9,"availableDocks":48,"nearbyStations":[{"id":267,"distance":0.052142320969984},{"id":533,"distance":0.089334926650742},{"id":505,"distance":0.19396896678203},{"id":492,"distance":0.2066799894269},{"id":498,"distance":0.22144356207422}]},{"id":363,"status":"Active","latitude":40.70834698,"longitude":-74.01713445,"label":"West Thames St","stationAddress":"","availableBikes":4,"availableDocks":36,"nearbyStations":[{"id":2008,"distance":0.18436934864583},{"id":3002,"distance":0.2303050195026},{"id":304,"distance":0.31589599695418},{"id":195,"distance":0.35437339322605},{"id":260,"distance":0.43236597263591}]},{"id":364,"status":"Active","latitude":40.68900443,"longitude":-73.96023854,"label":"Lafayette Ave & Classon Ave","stationAddress":"","availableBikes":16,"availableDocks":10,"nearbyStations":[{"id":120,"distance":0.16246560107512},{"id":409,"distance":0.22959858249847},{"id":399,"distance":0.23944140505171},{"id":289,"distance":0.31552206075719},{"id":275,"distance":0.33139011802973}]},{"id":365,"status":"Active","latitude":40.68223166,"longitude":-73.9614583,"label":"Fulton St & Grand Ave","stationAddress":"","availableBikes":23,"availableDocks":5,"nearbyStations":[{"id":384,"distance":0.18970729127389},{"id":289,"distance":0.21286719524068},{"id":396,"distance":0.32545053335416},{"id":120,"distance":0.33354940222033},{"id":275,"distance":0.36723551890849}]},{"id":366,"status":"Active","latitude":40.693261,"longitude":-73.968896,"label":"Clinton Ave & Myrtle Ave","stationAddress":"","availableBikes":17,"availableDocks":16,"nearbyStations":[{"id":270,"distance":0.15207348103915},{"id":244,"distance":0.205502514255},{"id":313,"distance":0.20931518269677},{"id":421,"distance":0.21217251949391},{"id":258,"distance":0.26627845991152}]},{"id":367,"status":"Active","latitude":40.75828065,"longitude":-73.97069431,"label":"E 53 St & Lexington Ave","stationAddress":"","availableBikes":4,"availableDocks":28,"nearbyStations":[{"id":2023,"distance":0.098780385328262},{"id":522,"distance":0.10666485652075},{"id":456,"distance":0.20029951902527},{"id":441,"distance":0.23231910832224},{"id":385,"distance":0.24488958262702}]},{"id":368,"status":"Active","latitude":40.73038599,"longitude":-74.00214988,"label":"Carmine St & 6 Ave","stationAddress":"","availableBikes":19,"availableDocks":17,"nearbyStations":[{"id":369,"distance":0.16181469962822},{"id":336,"distance":0.16187959563512},{"id":161,"distance":0.227979324622},{"id":252,"distance":0.23004759225884},{"id":128,"distance":0.23091275574696}]},{"id":369,"status":"Active","latitude":40.73224119,"longitude":-74.00026394,"label":"Washington Pl & 6 Ave","stationAddress":"","availableBikes":4,"availableDocks":31,"nearbyStations":[{"id":252,"distance":0.09121874403421},{"id":336,"distance":0.13719193960375},{"id":368,"distance":0.16181469962822},{"id":380,"distance":0.18594773057533},{"id":383,"distance":0.20707266390278}]},{"id":372,"status":"Active","latitude":40.694528,"longitude":-73.958089,"label":"Franklin Ave & Myrtle Ave","stationAddress":"","availableBikes":26,"availableDocks":1,"nearbyStations":[{"id":354,"distance":0.22590081002092},{"id":373,"distance":0.23879253440788},{"id":409,"distance":0.28171989625327},{"id":3063,"distance":0.3033980698328},{"id":364,"distance":0.39793375950639}]},{"id":373,"status":"Active","latitude":40.69331716,"longitude":-73.95381995,"label":"Willoughby Ave & Walworth St","stationAddress":"","availableBikes":11,"availableDocks":8,"nearbyStations":[{"id":3063,"distance":0.15456975116721},{"id":409,"distance":0.22954638935969},{"id":372,"distance":0.23879253440788},{"id":3062,"distance":0.26597033777437},{"id":3060,"distance":0.40084924398262}]},{"id":375,"status":"Active","latitude":40.72679454,"longitude":-73.99695094,"label":"Mercer St & Bleecker St","stationAddress":"","availableBikes":26,"availableDocks":4,"nearbyStations":[{"id":250,"distance":0.16864385703527},{"id":229,"distance":0.17130676998406},{"id":161,"distance":0.17487696787038},{"id":335,"distance":0.21722308965465},{"id":303,"distance":0.25623070520674}]},{"id":376,"status":"Active","latitude":40.70862144,"longitude":-74.00722156,"label":"John St & William St","stationAddress":"","availableBikes":7,"availableDocks":34,"nearbyStations":[{"id":316,"distance":0.074102079065461},{"id":306,"distance":0.10409822061479},{"id":264,"distance":0.10769648797763},{"id":360,"distance":0.13195490046519},{"id":195,"distance":0.17091388315725}]},{"id":377,"status":"Active","latitude":40.72243797,"longitude":-74.00566443,"label":"6 Ave & Canal St","stationAddress":"","availableBikes":21,"availableDocks":26,"nearbyStations":[{"id":248,"distance":0.11485674156003},{"id":2004,"distance":0.14453534122846},{"id":2010,"distance":0.18194139434017},{"id":79,"distance":0.23549598724419},{"id":328,"distance":0.23719988178215}]},{"id":379,"status":"Active","latitude":40.749156,"longitude":-73.9916,"label":"W 31 St & 7 Ave","stationAddress":"","availableBikes":0,"availableDocks":39,"nearbyStations":[{"id":492,"distance":0.080189128865696},{"id":505,"distance":0.16341493863301},{"id":498,"distance":0.18876755271493},{"id":521,"distance":0.19441645901152},{"id":490,"distance":0.20570166300462}]},{"id":380,"status":"Active","latitude":40.73401143,"longitude":-74.00293877,"label":"W 4 St & 7 Ave S","stationAddress":"","availableBikes":35,"availableDocks":2,"nearbyStations":[{"id":247,"distance":0.13572139724902},{"id":383,"distance":0.16338095412453},{"id":369,"distance":0.18594773057533},{"id":358,"distance":0.23134615934174},{"id":346,"distance":0.24302752104341}]},{"id":382,"status":"Active","latitude":40.73492695,"longitude":-73.99200509,"label":"University Pl & E 14 St","stationAddress":"","availableBikes":26,"availableDocks":9,"nearbyStations":[{"id":285,"distance":0.071215502287076},{"id":253,"distance":0.13733659666549},{"id":357,"distance":0.16109367633125},{"id":496,"distance":0.16258827295022},{"id":497,"distance":0.17759397038317}]},{"id":383,"status":"Active","latitude":40.735238,"longitude":-74.000271,"label":"Greenwich Ave & Charles St","stationAddress":"","availableBikes":31,"availableDocks":8,"nearbyStations":[{"id":254,"distance":0.11883410141451},{"id":380,"distance":0.16338095412453},{"id":223,"distance":0.17887880394223},{"id":345,"distance":0.18995539040131},{"id":369,"distance":0.20707266390278}]},{"id":384,"status":"Active","latitude":40.683048,"longitude":-73.964915,"label":"Fulton St & Washington Ave","stationAddress":"","availableBikes":16,"availableDocks":15,"nearbyStations":[{"id":365,"distance":0.18970729127389},{"id":397,"distance":0.23838060543841},{"id":275,"distance":0.24151846666958},{"id":289,"distance":0.33665644967551},{"id":399,"distance":0.37786415272267}]},{"id":385,"status":"Active","latitude":40.75797322,"longitude":-73.96603308,"label":"E 55 St & 2 Ave","stationAddress":"","availableBikes":3,"availableDocks":26,"nearbyStations":[{"id":441,"distance":0.15351310124995},{"id":290,"distance":0.16732693013384},{"id":305,"distance":0.21574064235998},{"id":454,"distance":0.23609307543798},{"id":367,"distance":0.24488958262702}]},{"id":386,"status":"Active","latitude":40.71494807,"longitude":-74.00234482,"label":"Centre St & Worth St","stationAddress":"","availableBikes":8,"availableDocks":34,"nearbyStations":[{"id":355,"distance":0.15510022179284},{"id":330,"distance":0.17465660168633},{"id":387,"distance":0.19358362265627},{"id":308,"distance":0.23869400300799},{"id":320,"distance":0.24699741561215}]},{"id":387,"status":"Active","latitude":40.71273266,"longitude":-74.0046073,"label":"Centre St & Chambers St","stationAddress":"","availableBikes":16,"availableDocks":23,"nearbyStations":[{"id":224,"distance":0.099977314635144},{"id":330,"distance":0.13359063229432},{"id":386,"distance":0.19358362265627},{"id":316,"distance":0.24140672570127},{"id":82,"distance":0.25636076076019}]},{"id":388,"status":"Active","latitude":40.749717753,"longitude":-74.002950346,"label":"W 26 St & 10 Ave","stationAddress":"","availableBikes":3,"availableDocks":30,"nearbyStations":[{"id":489,"distance":0.090022571957665},{"id":458,"distance":0.16624377486688},{"id":462,"distance":0.21005832578878},{"id":512,"distance":0.23982717008979},{"id":509,"distance":0.29609155704985}]},{"id":389,"status":"Active","latitude":40.71044554,"longitude":-73.96525063,"label":"Broadway & Berry St","stationAddress":"","availableBikes":10,"availableDocks":16,"nearbyStations":[{"id":443,"distance":0.14561370945203},{"id":460,"distance":0.17021926861618},{"id":481,"distance":0.20223875186232},{"id":282,"distance":0.22076536584054},{"id":532,"distance":0.22913045580671}]},{"id":390,"status":"Active","latitude":40.69221589,"longitude":-73.9842844,"label":"Duffield St & Willoughby St","stationAddress":"","availableBikes":25,"availableDocks":5,"nearbyStations":[{"id":323,"distance":0.10699064531352},{"id":239,"distance":0.15721646677731},{"id":261,"distance":0.17839919869456},{"id":218,"distance":0.19780809585198},{"id":324,"distance":0.23505289555877}]},{"id":391,"status":"Active","latitude":40.69760127,"longitude":-73.99344559,"label":"Clark St & Henry St","stationAddress":"","availableBikes":18,"availableDocks":12,"nearbyStations":[{"id":322,"distance":0.1519894836932},{"id":232,"distance":0.20597573572324},{"id":3180,"distance":0.2090122608916},{"id":406,"distance":0.2154480730298},{"id":216,"distance":0.21953320834916}]},{"id":392,"status":"Active","latitude":40.695065,"longitude":-73.987167,"label":"Jay St & Tech Pl","stationAddress":"","availableBikes":28,"availableDocks":3,"nearbyStations":[{"id":232,"distance":0.16844607215679},{"id":233,"distance":0.17732998811606},{"id":261,"distance":0.18686323030025},{"id":323,"distance":0.19201542529164},{"id":314,"distance":0.1961890062147}]},{"id":393,"status":"Active","latitude":40.72299208,"longitude":-73.97995466,"label":"E 5 St & Avenue C","stationAddress":"","availableBikes":4,"availableDocks":26,"nearbyStations":[{"id":317,"distance":0.14593080514553},{"id":150,"distance":0.15383519366165},{"id":411,"distance":0.17803125032917},{"id":302,"distance":0.18323680614899},{"id":394,"distance":0.194028901026}]},{"id":394,"status":"Active","latitude":40.72521311,"longitude":-73.97768752,"label":"E 9 St & Avenue C","stationAddress":"","availableBikes":5,"availableDocks":26,"nearbyStations":[{"id":266,"distance":0.14657190311529},{"id":339,"distance":0.18589125907647},{"id":393,"distance":0.194028901026},{"id":411,"distance":0.2092742546585},{"id":317,"distance":0.22313355912359}]},{"id":395,"status":"Inactive","latitude":40.68807003,"longitude":-73.98410637,"label":"Bond St & Schermerhorn St","stationAddress":"","availableBikes":0,"availableDocks":30,"nearbyStations":[{"id":431,"distance":0.086802750053163},{"id":324,"distance":0.20505517178597},{"id":218,"distance":0.21803287742319},{"id":298,"distance":0.2473297857566},{"id":243,"distance":0.24776584031322}]},{"id":396,"status":"Active","latitude":40.680342423,"longitude":-73.9557689392,"label":"Lefferts Pl & Franklin Ave","stationAddress":"","availableBikes":7,"availableDocks":16,"nearbyStations":[{"id":436,"distance":0.15670893491172},{"id":437,"distance":0.30303499838677},{"id":365,"distance":0.32545053335416},{"id":289,"distance":0.3326684586745},{"id":344,"distance":0.34732770406175}]},{"id":397,"status":"Active","latitude":40.68415748,"longitude":-73.96922273,"label":"Fulton St & Clermont Ave","stationAddress":"","availableBikes":19,"availableDocks":8,"nearbyStations":[{"id":384,"distance":0.23838060543841},{"id":420,"distance":0.24220356844486},{"id":275,"distance":0.24817451772956},{"id":353,"distance":0.28018104036057},{"id":416,"distance":0.29447815357672}]},{"id":398,"status":"Active","latitude":40.69165183,"longitude":-73.9999786,"label":"Atlantic Ave & Furman St","stationAddress":"","availableBikes":24,"availableDocks":7,"nearbyStations":[{"id":157,"distance":0.20867711578988},{"id":406,"distance":0.31975079814471},{"id":143,"distance":0.34955107758503},{"id":3180,"distance":0.51480367428573},{"id":314,"distance":0.51694444025786}]},{"id":399,"status":"Active","latitude":40.68851534,"longitude":-73.9647628,"label":"Lafayette Ave & St James Pl","stationAddress":"","availableBikes":7,"availableDocks":20,"nearbyStations":[{"id":275,"distance":0.14648770790953},{"id":258,"distance":0.22307100953332},{"id":364,"distance":0.23944140505171},{"id":244,"distance":0.24014794984335},{"id":420,"distance":0.26502341558409}]},{"id":400,"status":"Active","latitude":40.71926081,"longitude":-73.98178024,"label":"Pitt St & Stanton St","stationAddress":"","availableBikes":3,"availableDocks":12,"nearbyStations":[{"id":349,"distance":0.095242849731237},{"id":150,"distance":0.12145667620484},{"id":342,"distance":0.15390844469735},{"id":410,"distance":0.20273538801767},{"id":356,"distance":0.21414550355493}]},{"id":401,"status":"Active","latitude":40.72019576,"longitude":-73.98997825,"label":"Allen St & Rivington St","stationAddress":"","availableBikes":14,"availableDocks":25,"nearbyStations":[{"id":473,"distance":0.11961286678483},{"id":312,"distance":0.13626062877418},{"id":265,"distance":0.16479093414699},{"id":531,"distance":0.16524870385127},{"id":311,"distance":0.22929697768014}]},{"id":402,"status":"Active","latitude":40.7403432,"longitude":-73.98955109,"label":"Broadway & E 22 St","stationAddress":"","availableBikes":0,"availableDocks":40,"nearbyStations":[{"id":444,"distance":0.14053374370432},{"id":503,"distance":0.1781791054268},{"id":491,"distance":0.1896629274955},{"id":497,"distance":0.22932476731922},{"id":496,"distance":0.25964948795993}]},{"id":403,"status":"Active","latitude":40.72502876,"longitude":-73.99069656,"label":"E 2 St & 2 Ave","stationAddress":"","availableBikes":27,"availableDocks":3,"nearbyStations":[{"id":439,"distance":0.098918264058331},{"id":428,"distance":0.15184868614234},{"id":265,"distance":0.19335256342384},{"id":300,"distance":0.21680227777073},{"id":312,"distance":0.22162120943945}]},{"id":404,"status":"Active","latitude":40.7405826,"longitude":-74.00550867,"label":"9 Ave & W 14 St","stationAddress":"","availableBikes":32,"availableDocks":2,"nearbyStations":[{"id":463,"distance":0.11694583640087},{"id":405,"distance":0.16202254778254},{"id":225,"distance":0.1623905824114},{"id":284,"distance":0.18519592855677},{"id":212,"distance":0.20308469815223}]},{"id":405,"status":"Active","latitude":40.739323,"longitude":-74.008119,"label":"Washington St & Gansevoort St","stationAddress":"","availableBikes":28,"availableDocks":12,"nearbyStations":[{"id":404,"distance":0.16202254778254},{"id":225,"distance":0.18167429691981},{"id":238,"distance":0.21743502766067},{"id":346,"distance":0.21812277775813},{"id":463,"distance":0.27050371640243}]},{"id":406,"status":"Active","latitude":40.69512845,"longitude":-73.99595065,"label":"Hicks St & Montague St","stationAddress":"","availableBikes":22,"availableDocks":11,"nearbyStations":[{"id":391,"distance":0.2154480730298},{"id":143,"distance":0.23199965220446},{"id":322,"distance":0.2585990256547},{"id":3180,"distance":0.25964344865647},{"id":233,"distance":0.28527718858438}]},{"id":407,"status":"Inactive","latitude":40.700469,"longitude":-73.991454,"label":"Henry St & Poplar St","stationAddress":"","availableBikes":0,"availableDocks":2,"nearbyStations":[{"id":321,"distance":0.098613679121603},{"id":2000,"distance":0.17956655841596},{"id":217,"distance":0.20219855551644},{"id":216,"distance":0.21102491428952},{"id":391,"distance":0.22394139888107}]},{"id":408,"status":"Active","latitude":40.71076228,"longitude":-73.99400398,"label":"Market St & Cherry St","stationAddress":"","availableBikes":2,"availableDocks":21,"nearbyStations":[{"id":331,"distance":0.1275780984924},{"id":2009,"distance":0.15053631020488},{"id":295,"distance":0.23503853146928},{"id":296,"distance":0.28209402679273},{"id":308,"distance":0.28526474693012}]},{"id":409,"status":"Active","latitude":40.6906495,"longitude":-73.95643107,"label":"DeKalb Ave & Skillman St","stationAddress":"","availableBikes":13,"availableDocks":6,"nearbyStations":[{"id":373,"distance":0.22954638935969},{"id":364,"distance":0.22959858249847},{"id":372,"distance":0.28171989625327},{"id":120,"distance":0.30698866592762},{"id":354,"distance":0.36733269323879}]},{"id":410,"status":"Active","latitude":40.72066442,"longitude":-73.98517977,"label":"Suffolk St & Stanton St","stationAddress":"","availableBikes":27,"availableDocks":5,"nearbyStations":[{"id":301,"distance":0.13035059095587},{"id":349,"distance":0.17896672462299},{"id":400,"distance":0.20273538801767},{"id":150,"distance":0.22679008124415},{"id":312,"distance":0.22719137391219}]},{"id":411,"status":"Active","latitude":40.72228087,"longitude":-73.97668709,"label":"E 6 St & Avenue D","stationAddress":"","availableBikes":9,"availableDocks":14,"nearbyStations":[{"id":266,"distance":0.10868484272873},{"id":302,"distance":0.11967338600139},{"id":393,"distance":0.17803125032917},{"id":394,"distance":0.2092742546585},{"id":150,"distance":0.23908794234622}]},{"id":412,"status":"Active","latitude":40.7158155,"longitude":-73.99422366,"label":"Forsyth St & Canal St","stationAddress":"","availableBikes":29,"availableDocks":0,"nearbyStations":[{"id":361,"distance":0.12245700125989},{"id":295,"distance":0.13830545852715},{"id":263,"distance":0.15190479056871},{"id":296,"distance":0.18817923150514},{"id":531,"distance":0.2307892989278}]},{"id":414,"status":"Active","latitude":40.70281858,"longitude":-73.98765762,"label":"Pearl St & Anchorage Pl","stationAddress":"","availableBikes":18,"availableDocks":5,"nearbyStations":[{"id":2000,"distance":0.093248021255599},{"id":430,"distance":0.10835171166994},{"id":321,"distance":0.22765761043778},{"id":418,"distance":0.26907360898492},{"id":217,"distance":0.32366131646773}]},{"id":415,"status":"Active","latitude":40.7047177,"longitude":-74.00926027,"label":"Pearl St & Hanover Square","stationAddress":"","availableBikes":26,"availableDocks":16,"nearbyStations":[{"id":337,"distance":0.078240475695317},{"id":260,"distance":0.14650239657712},{"id":315,"distance":0.15627637731082},{"id":351,"distance":0.16920796442234},{"id":360,"distance":0.17129960970587}]},{"id":416,"status":"Active","latitude":40.68753406,"longitude":-73.97265183,"label":"Cumberland St & Lafayette Ave","stationAddress":"","availableBikes":14,"availableDocks":17,"nearbyStations":[{"id":420,"distance":0.1554250692883},{"id":353,"distance":0.17152964833152},{"id":241,"distance":0.1974880941569},{"id":274,"distance":0.21540103035443},{"id":258,"distance":0.23735971584773}]},{"id":417,"status":"Active","latitude":40.71291224,"longitude":-74.01020234,"label":"Barclay St & Church St","stationAddress":"","availableBikes":12,"availableDocks":9,"nearbyStations":[{"id":319,"distance":0.13356424117263},{"id":152,"distance":0.13872400551797},{"id":147,"distance":0.18141875873552},{"id":309,"distance":0.20504272507933},{"id":146,"distance":0.23767809564237}]},{"id":418,"status":"Active","latitude":40.70224,"longitude":-73.982578,"label":"Front St & Gold St","stationAddress":"","availableBikes":12,"availableDocks":9,"nearbyStations":[{"id":430,"distance":0.21548691648175},{"id":2001,"distance":0.21987064108286},{"id":414,"distance":0.26907360898492},{"id":144,"distance":0.28325203815165},{"id":2000,"distance":0.35812777474176}]},{"id":419,"status":"Active","latitude":40.69580705,"longitude":-73.97355569,"label":"Carlton Ave & Park Ave","stationAddress":"","availableBikes":17,"availableDocks":6,"nearbyStations":[{"id":421,"distance":0.118453973042},{"id":242,"distance":0.13713547704824},{"id":270,"distance":0.20977448265508},{"id":119,"distance":0.23542934533978},{"id":343,"distance":0.24296889484835}]},{"id":420,"status":"Active","latitude":40.68764484,"longitude":-73.96968902,"label":"Clermont Ave & Lafayette Ave","stationAddress":"","availableBikes":11,"availableDocks":12,"nearbyStations":[{"id":258,"distance":0.12940277672674},{"id":416,"distance":0.1554250692883},{"id":275,"distance":0.22674316032936},{"id":397,"distance":0.24220356844486},{"id":399,"distance":0.26502341558409}]},{"id":421,"status":"Active","latitude":40.69573398,"longitude":-73.97129668,"label":"Clermont Ave & Park Ave","stationAddress":"","availableBikes":18,"availableDocks":1,"nearbyStations":[{"id":419,"distance":0.118453973042},{"id":343,"distance":0.16980330437595},{"id":270,"distance":0.18501365275885},{"id":242,"distance":0.1909301881725},{"id":313,"distance":0.19998459592309}]},{"id":422,"status":"Active","latitude":40.770513,"longitude":-73.988038,"label":"W 59 St & 10 Ave","stationAddress":"","availableBikes":9,"availableDocks":45,"nearbyStations":[{"id":530,"distance":0.14838014366937},{"id":513,"distance":0.15922841110267},{"id":480,"distance":0.29623400891953},{"id":423,"distance":0.32765158274818},{"id":499,"distance":0.33370329812022}]},{"id":423,"status":"Active","latitude":40.76584941,"longitude":-73.98690506,"label":"W 54 St & 9 Ave","stationAddress":"","availableBikes":3,"availableDocks":36,"nearbyStations":[{"id":449,"distance":0.099589517603614},{"id":447,"distance":0.17387546532448},{"id":513,"distance":0.18931527911259},{"id":480,"distance":0.20290214198099},{"id":450,"distance":0.25241973317091}]},{"id":426,"status":"Active","latitude":40.71754834,"longitude":-74.01322069,"label":"West St & Chambers St","stationAddress":"","availableBikes":24,"availableDocks":1,"nearbyStations":[{"id":276,"distance":0.14488327275341},{"id":309,"distance":0.17789199125814},{"id":147,"distance":0.18046873444958},{"id":327,"distance":0.23312367687465},{"id":146,"distance":0.23342528587725}]},{"id":427,"status":"Active","latitude":40.701907,"longitude":-74.013942,"label":"Bus Slip & State St","stationAddress":"","availableBikes":18,"availableDocks":29,"nearbyStations":[{"id":534,"distance":0.077800018608937},{"id":259,"distance":0.096271982478572},{"id":260,"distance":0.16911714629365},{"id":304,"distance":0.18915091617721},{"id":2008,"distance":0.30078357671476}]},{"id":428,"status":"Active","latitude":40.72467721,"longitude":-73.98783413,"label":"E 3 St & 1 Ave","stationAddress":"","availableBikes":12,"availableDocks":17,"nearbyStations":[{"id":439,"distance":0.15054297394773},{"id":403,"distance":0.15184868614234},{"id":312,"distance":0.19313272310054},{"id":432,"distance":0.23662390937711},{"id":438,"distance":0.24369429097662}]},{"id":430,"status":"Active","latitude":40.7014851,"longitude":-73.98656928,"label":"York St & Jay St","stationAddress":"","availableBikes":21,"availableDocks":1,"nearbyStations":[{"id":414,"distance":0.10835171166994},{"id":2000,"distance":0.16567418856301},{"id":321,"distance":0.19731703199346},{"id":418,"distance":0.21548691648175},{"id":2001,"distance":0.36751530524326}]},{"id":431,"status":"Active","latitude":40.68864636,"longitude":-73.98263429,"label":"Hanover Pl & Livingston St","stationAddress":"","availableBikes":19,"availableDocks":9,"nearbyStations":[{"id":324,"distance":0.12073268744573},{"id":243,"distance":0.17285938932696},{"id":298,"distance":0.19930131740651},{"id":239,"distance":0.23974538604315},{"id":218,"distance":0.25854747236563}]},{"id":432,"status":"Active","latitude":40.72621788,"longitude":-73.98379855,"label":"E 7 St & Avenue A","stationAddress":"","availableBikes":4,"availableDocks":26,"nearbyStations":[{"id":438,"distance":0.14564657736396},{"id":445,"distance":0.14924453077224},{"id":317,"distance":0.15443545255748},{"id":326,"distance":0.23074681329166},{"id":236,"distance":0.2317980684897}]},{"id":433,"status":"Active","latitude":40.72955361,"longitude":-73.98057249,"label":"E 13 St & Avenue A","stationAddress":"","availableBikes":26,"availableDocks":13,"nearbyStations":[{"id":511,"distance":0.14958211797621},{"id":445,"distance":0.15476078023142},{"id":504,"distance":0.19267464306614},{"id":326,"distance":0.19346844713325},{"id":432,"distance":0.28576642132088}]},{"id":434,"status":"Active","latitude":40.74317449,"longitude":-74.00366443,"label":"9 Ave & W 18 St","stationAddress":"","availableBikes":4,"availableDocks":22,"nearbyStations":[{"id":463,"distance":0.086525379671023},{"id":116,"distance":0.14902057625289},{"id":212,"distance":0.16551021839501},{"id":509,"distance":0.18334648141314},{"id":470,"distance":0.19070287785853}]},{"id":435,"status":"Active","latitude":40.74173969,"longitude":-73.99415556,"label":"W 21 St & 6 Ave","stationAddress":"","availableBikes":40,"availableDocks":5,"nearbyStations":[{"id":168,"distance":0.14166222716318},{"id":334,"distance":0.16870102124163},{"id":466,"distance":0.20855090756794},{"id":446,"distance":0.22484742725634},{"id":402,"distance":0.25965341778219}]},{"id":436,"status":"Active","latitude":40.68216564,"longitude":-73.95399026,"label":"Hancock St & Bedford Ave","stationAddress":"","availableBikes":22,"availableDocks":3,"nearbyStations":[{"id":396,"distance":0.15670893491172},{"id":344,"distance":0.20603713946659},{"id":437,"distance":0.22214071883668},{"id":289,"distance":0.30226323687129},{"id":365,"distance":0.39134627309762}]},{"id":437,"status":"Active","latitude":40.6809833854,"longitude":-73.9500479759,"label":"Macon St & Nostrand Ave","stationAddress":"","availableBikes":11,"availableDocks":11,"nearbyStations":[{"id":436,"distance":0.22214071883668},{"id":396,"distance":0.30303499838677},{"id":344,"distance":0.34856824399853},{"id":289,"distance":0.52171775133051},{"id":365,"distance":0.60408708909778}]},{"id":438,"status":"Active","latitude":40.72779126,"longitude":-73.98564945,"label":"St Marks Pl & 1 Ave","stationAddress":"","availableBikes":17,"availableDocks":8,"nearbyStations":[{"id":236,"distance":0.089259226824795},{"id":326,"distance":0.14075421760821},{"id":432,"distance":0.14564657736396},{"id":237,"distance":0.19365847977366},{"id":445,"distance":0.22304405525477}]},{"id":439,"status":"Active","latitude":40.7262807,"longitude":-73.98978041,"label":"E 4 St & 2 Ave","stationAddress":"","availableBikes":26,"availableDocks":11,"nearbyStations":[{"id":403,"distance":0.098918264058331},{"id":300,"distance":0.13080416838823},{"id":428,"distance":0.15054297394773},{"id":236,"distance":0.20234865687254},{"id":229,"distance":0.22459120492157}]},{"id":440,"status":"Active","latitude":40.75255434,"longitude":-73.97282625,"label":"E 45 St & 3 Ave","stationAddress":"","availableBikes":1,"availableDocks":31,"nearbyStations":[{"id":164,"distance":0.13901385780635},{"id":228,"distance":0.1498684100447},{"id":2017,"distance":0.18179777152341},{"id":359,"distance":0.20927612886113},{"id":519,"distance":0.25972889984303}]},{"id":441,"status":"Active","latitude":40.756014,"longitude":-73.967416,"label":"E 52 St & 2 Ave","stationAddress":"","availableBikes":1,"availableDocks":33,"nearbyStations":[{"id":454,"distance":0.12721178203649},{"id":385,"distance":0.15351310124995},{"id":367,"distance":0.23231910832224},{"id":164,"distance":0.24528801394337},{"id":228,"distance":0.2531741289833}]},{"id":442,"status":"Active","latitude":40.746647,"longitude":-73.993915,"label":"W 27 St & 7 Ave","stationAddress":"","availableBikes":1,"availableDocks":47,"nearbyStations":[{"id":446,"distance":0.14218711403917},{"id":494,"distance":0.18045021638624},{"id":379,"distance":0.21152168696469},{"id":466,"distance":0.22647754561318},{"id":486,"distance":0.2821611802724}]},{"id":443,"status":"Active","latitude":40.70853074,"longitude":-73.96408963,"label":"Bedford Ave & S 9 St","stationAddress":"","availableBikes":4,"availableDocks":18,"nearbyStations":[{"id":389,"distance":0.14561370945203},{"id":532,"distance":0.2143314514306},{"id":282,"distance":0.22339281542898},{"id":481,"distance":0.29151646967181},{"id":460,"distance":0.31378210859939}]},{"id":444,"status":"Active","latitude":40.7423543,"longitude":-73.98915076,"label":"Broadway & W 24 St","stationAddress":"","availableBikes":9,"availableDocks":42,"nearbyStations":[{"id":402,"distance":0.14053374370432},{"id":466,"distance":0.16337688798137},{"id":491,"distance":0.18989435187421},{"id":474,"distance":0.2292203139636},{"id":435,"distance":0.26543153829833}]},{"id":445,"status":"Active","latitude":40.72740794,"longitude":-73.98142006,"label":"E 10 St & Avenue A","stationAddress":"","availableBikes":32,"availableDocks":4,"nearbyStations":[{"id":432,"distance":0.14924453077224},{"id":433,"distance":0.15476078023142},{"id":317,"distance":0.19965030241039},{"id":326,"distance":0.20951648079992},{"id":438,"distance":0.22304405525477}]},{"id":446,"status":"Active","latitude":40.74487634,"longitude":-73.99529885,"label":"W 24 St & 7 Ave","stationAddress":"","availableBikes":10,"availableDocks":28,"nearbyStations":[{"id":442,"distance":0.14218711403917},{"id":494,"distance":0.19862530268559},{"id":334,"distance":0.20032937974366},{"id":453,"distance":0.20198152773391},{"id":466,"distance":0.2113895855026}]},{"id":447,"status":"Active","latitude":40.76370739,"longitude":-73.9851615,"label":"8 Ave & W 52 St","stationAddress":"","availableBikes":5,"availableDocks":23,"nearbyStations":[{"id":500,"distance":0.13596559159384},{"id":449,"distance":0.15628034359925},{"id":450,"distance":0.17351936524774},{"id":423,"distance":0.17387546532448},{"id":173,"distance":0.21494925566001}]},{"id":448,"status":"Active","latitude":40.75660359,"longitude":-73.9979009,"label":"W 37 St & 10 Ave","stationAddress":"","availableBikes":1,"availableDocks":27,"nearbyStations":[{"id":488,"distance":0.21894579803757},{"id":525,"distance":0.22532992011795},{"id":478,"distance":0.26018652343161},{"id":515,"distance":0.29613447615473},{"id":523,"distance":0.36656088907931}]},{"id":449,"status":"Active","latitude":40.76461837,"longitude":-73.98789473,"label":"W 52 St & 9 Ave","stationAddress":"","availableBikes":3,"availableDocks":26,"nearbyStations":[{"id":423,"distance":0.099589517603614},{"id":447,"distance":0.15628034359925},{"id":450,"distance":0.16212640398604},{"id":480,"distance":0.20229709364846},{"id":513,"distance":0.25421485042557}]},{"id":450,"status":"Active","latitude":40.76227205,"longitude":-73.98788205,"label":"W 49 St & 8 Ave","stationAddress":"","availableBikes":0,"availableDocks":58,"nearbyStations":[{"id":449,"distance":0.16212640398604},{"id":447,"distance":0.17351936524774},{"id":2021,"distance":0.2093335794472},{"id":173,"distance":0.21287941343872},{"id":479,"distance":0.22762196556848}]},{"id":453,"status":"Active","latitude":40.74475148,"longitude":-73.99915362,"label":"W 22 St & 8 Ave","stationAddress":"","availableBikes":12,"availableDocks":25,"nearbyStations":[{"id":470,"distance":0.10099685597992},{"id":509,"distance":0.15625254653149},{"id":334,"distance":0.19098765339255},{"id":446,"distance":0.20198152773391},{"id":494,"distance":0.20561547180132}]},{"id":454,"status":"Active","latitude":40.75455731,"longitude":-73.96592976,"label":"E 51 St & 1 Ave","stationAddress":"","availableBikes":13,"availableDocks":18,"nearbyStations":[{"id":441,"distance":0.12721178203649},{"id":516,"distance":0.19902005024717},{"id":385,"distance":0.23609307543798},{"id":164,"distance":0.24764981900882},{"id":228,"distance":0.31140405295163}]},{"id":455,"status":"Active","latitude":40.75001986,"longitude":-73.96905301,"label":"1 Ave & E 44 St","stationAddress":"","availableBikes":7,"availableDocks":31,"nearbyStations":[{"id":2017,"distance":0.11400144093423},{"id":516,"distance":0.15506970985132},{"id":164,"distance":0.2316578182318},{"id":440,"distance":0.26396859305634},{"id":518,"distance":0.2760995492737}]},{"id":456,"status":"Active","latitude":40.7597108,"longitude":-73.97402311,"label":"E 53 St & Madison Ave","stationAddress":"","availableBikes":3,"availableDocks":32,"nearbyStations":[{"id":520,"distance":0.12968777456982},{"id":137,"distance":0.14442444586627},{"id":2023,"distance":0.19415725281537},{"id":367,"distance":0.20029951902527},{"id":522,"distance":0.20427756773862}]},{"id":457,"status":"Active","latitude":40.76695317,"longitude":-73.98169333,"label":"Broadway & W 58 St","stationAddress":"","availableBikes":25,"availableDocks":11,"nearbyStations":[{"id":499,"distance":0.1525998591749},{"id":423,"distance":0.28320798065879},{"id":447,"distance":0.28851818157925},{"id":2006,"distance":0.28921430277187},{"id":500,"distance":0.33395207823026}]},{"id":458,"status":"Active","latitude":40.751396,"longitude":-74.005226,"label":"11 Ave & W 27 St","stationAddress":"","availableBikes":12,"availableDocks":17,"nearbyStations":[{"id":388,"distance":0.16624377486688},{"id":489,"distance":0.18794484763389},{"id":462,"distance":0.31151613782295},{"id":459,"distance":0.34759183097106},{"id":525,"distance":0.35376053121087}]},{"id":459,"status":"Active","latitude":40.746745,"longitude":-74.007756,"label":"W 20 St & 11 Ave","stationAddress":"","availableBikes":4,"availableDocks":43,"nearbyStations":[{"id":462,"distance":0.1698874568772},{"id":212,"distance":0.23971949997028},{"id":509,"distance":0.31485177425399},{"id":388,"distance":0.32477260751279},{"id":434,"distance":0.32672057361637}]},{"id":460,"status":"Active","latitude":40.71285887,"longitude":-73.96590294,"label":"S 4 St & Wythe Ave","stationAddress":"","availableBikes":10,"availableDocks":12,"nearbyStations":[{"id":389,"distance":0.17021926861618},{"id":481,"distance":0.17158621356901},{"id":532,"distance":0.31145468435126},{"id":2002,"distance":0.31231310575408},{"id":443,"distance":0.31378210859939}]},{"id":461,"status":"Active","latitude":40.73587678,"longitude":-73.98205027,"label":"E 20 St & 2 Ave","stationAddress":"","availableBikes":2,"availableDocks":36,"nearbyStations":[{"id":325,"distance":0.14298807809697},{"id":2003,"distance":0.16300087018519},{"id":545,"distance":0.21155778813707},{"id":504,"distance":0.25361961026941},{"id":507,"distance":0.25507887035136}]},{"id":462,"status":"Active","latitude":40.74691959,"longitude":-74.00451887,"label":"W 22 St & 10 Ave","stationAddress":"","availableBikes":13,"availableDocks":32,"nearbyStations":[{"id":509,"distance":0.16565815296192},{"id":459,"distance":0.1698874568772},{"id":388,"distance":0.21005832578878},{"id":434,"distance":0.26261469410902},{"id":212,"distance":0.27447902912586}]},{"id":463,"status":"Active","latitude":40.74206539,"longitude":-74.00443172,"label":"9 Ave & W 16 St","stationAddress":"","availableBikes":12,"availableDocks":10,"nearbyStations":[{"id":434,"distance":0.086525379671023},{"id":404,"distance":0.11694583640087},{"id":212,"distance":0.15320333435911},{"id":116,"distance":0.15491089261269},{"id":225,"distance":0.18854932982385}]},{"id":464,"status":"Inactive","latitude":40.75934501,"longitude":-73.96759673,"label":"E 56 St & 3 Ave","stationAddress":"","availableBikes":0,"availableDocks":39,"nearbyStations":[{"id":305,"distance":0.11293659683861},{"id":385,"distance":0.12522953413981},{"id":2023,"distance":0.14408086967112},{"id":290,"distance":0.15865615279668},{"id":367,"distance":0.17802546287148}]},{"id":465,"status":"Active","latitude":40.75513557,"longitude":-73.98658032,"label":"Broadway & W 41 St","stationAddress":"","availableBikes":2,"availableDocks":36,"nearbyStations":[{"id":533,"distance":0.1515117102673},{"id":524,"distance":0.17878845379503},{"id":477,"distance":0.20057452195343},{"id":493,"distance":0.22383823676071},{"id":362,"distance":0.24081522884347}]},{"id":466,"status":"Active","latitude":40.74395411,"longitude":-73.99144871,"label":"W 25 St & 6 Ave","stationAddress":"","availableBikes":2,"availableDocks":31,"nearbyStations":[{"id":444,"distance":0.16337688798137},{"id":435,"distance":0.20855090756794},{"id":446,"distance":0.2113895855026},{"id":486,"distance":0.21682769195388},{"id":442,"distance":0.22647754561318}]},{"id":467,"status":"Active","latitude":40.68312489,"longitude":-73.97895137,"label":"Dean St & 4 Ave","stationAddress":"","availableBikes":29,"availableDocks":2,"nearbyStations":[{"id":83,"distance":0.14598112188314},{"id":298,"distance":0.25896571595696},{"id":274,"distance":0.28784782328968},{"id":353,"distance":0.28921845386312},{"id":243,"distance":0.35319584113302}]},{"id":468,"status":"Inactive","latitude":40.7652654,"longitude":-73.98192338,"label":"Broadway & W 55 St","stationAddress":"","availableBikes":0,"availableDocks":59,"nearbyStations":[{"id":457,"distance":0.1172406159228},{"id":447,"distance":0.20076868597249},{"id":500,"distance":0.21905524275079},{"id":423,"distance":0.26381412550857},{"id":499,"distance":0.26876554768092}]},{"id":469,"status":"Inactive","latitude":40.76344058,"longitude":-73.98268129,"label":"Broadway & W 53 St","stationAddress":"","availableBikes":3,"availableDocks":54,"nearbyStations":[{"id":500,"distance":0.087225505985067},{"id":447,"distance":0.13110504299449},{"id":173,"distance":0.21356390692414},{"id":510,"distance":0.22566083888794},{"id":457,"distance":0.24815751698451}]},{"id":470,"status":"Active","latitude":40.74345335,"longitude":-74.00004031,"label":"W 20 St & 8 Ave","stationAddress":"","availableBikes":4,"availableDocks":32,"nearbyStations":[{"id":453,"distance":0.10099685597992},{"id":116,"distance":0.13875092661019},{"id":334,"distance":0.16300365935285},{"id":509,"distance":0.17368414426042},{"id":434,"distance":0.19070287785853}]},{"id":471,"status":"Active","latitude":40.71286844,"longitude":-73.95698119,"label":"Grand St & Havemeyer St","stationAddress":"","availableBikes":30,"availableDocks":0,"nearbyStations":[{"id":539,"distance":0.24189246323765},{"id":3087,"distance":0.25812050594681},{"id":532,"distance":0.26365892662625},{"id":481,"distance":0.29715123618108},{"id":3090,"distance":0.34090975013463}]},{"id":472,"status":"Active","latitude":40.7457121,"longitude":-73.98194829,"label":"E 32 St & Park Ave","stationAddress":"","availableBikes":1,"availableDocks":39,"nearbyStations":[{"id":546,"distance":0.1041770587951},{"id":476,"distance":0.17111937520556},{"id":540,"distance":0.17973651845374},{"id":526,"distance":0.20517364216734},{"id":160,"distance":0.25829515736519}]},{"id":473,"status":"Active","latitude":40.72110063,"longitude":-73.9919254,"label":"Rivington St & Chrystie St","stationAddress":"","availableBikes":20,"availableDocks":22,"nearbyStations":[{"id":265,"distance":0.085725124260692},{"id":401,"distance":0.11961286678483},{"id":531,"distance":0.15427320182906},{"id":312,"distance":0.16146553956379},{"id":251,"distance":0.20808315466654}]},{"id":474,"status":"Active","latitude":40.7451677,"longitude":-73.98683077,"label":"5 Ave & E 29 St","stationAddress":"","availableBikes":0,"availableDocks":46,"nearbyStations":[{"id":486,"distance":0.115174325841},{"id":526,"distance":0.1994629712245},{"id":546,"distance":0.20480178861264},{"id":444,"distance":0.2292203139636},{"id":498,"distance":0.24265259561853}]},{"id":475,"status":"Active","latitude":40.73524276,"longitude":-73.98758561,"label":"E 16 St & Irving Pl","stationAddress":"","availableBikes":6,"availableDocks":30,"nearbyStations":[{"id":297,"distance":0.077983151877005},{"id":325,"distance":0.164415843801},{"id":285,"distance":0.17210884770527},{"id":497,"distance":0.18117629108725},{"id":503,"distance":0.20949915063222}]},{"id":476,"status":"Active","latitude":40.74394314,"longitude":-73.97966069,"label":"E 31 St & 3 Ave","stationAddress":"","availableBikes":2,"availableDocks":42,"nearbyStations":[{"id":540,"distance":0.14248175196326},{"id":528,"distance":0.15373390344369},{"id":472,"distance":0.17111937520556},{"id":546,"distance":0.1800894582299},{"id":527,"distance":0.18878851727713}]},{"id":477,"status":"Active","latitude":40.75640548,"longitude":-73.9900262,"label":"W 41 St & 8 Ave","stationAddress":"","availableBikes":4,"availableDocks":50,"nearbyStations":[{"id":529,"distance":0.094828202607464},{"id":523,"distance":0.13957249352633},{"id":488,"distance":0.19348716593879},{"id":465,"distance":0.20057452195343},{"id":2021,"distance":0.21297757576487}]},{"id":478,"status":"Active","latitude":40.76030096,"longitude":-73.99884222,"label":"11 Ave & W 41 St","stationAddress":"","availableBikes":9,"availableDocks":21,"nearbyStations":[{"id":514,"distance":0.20970572226446},{"id":515,"distance":0.22152463324227},{"id":508,"distance":0.24317718777303},{"id":448,"distance":0.26018652343161},{"id":525,"distance":0.34655475368291}]},{"id":479,"status":"Active","latitude":40.76019252,"longitude":-73.9912551,"label":"9 Ave & W 45 St","stationAddress":"","availableBikes":4,"availableDocks":25,"nearbyStations":[{"id":2021,"distance":0.15244645741662},{"id":515,"distance":0.17616030934171},{"id":529,"distance":0.18176699198956},{"id":495,"distance":0.19608189822863},{"id":450,"distance":0.22762196556848}]},{"id":480,"status":"Active","latitude":40.76669671,"longitude":-73.99061728,"label":"W 53 St & 10 Ave","stationAddress":"","availableBikes":6,"availableDocks":18,"nearbyStations":[{"id":513,"distance":0.14932114871514},{"id":72,"distance":0.17780736685282},{"id":449,"distance":0.20229709364846},{"id":423,"distance":0.20290214198099},{"id":422,"distance":0.29623400891953}]},{"id":481,"status":"Active","latitude":40.71260486,"longitude":-73.96264403,"label":"S 3 St & Bedford Ave","stationAddress":"","availableBikes":9,"availableDocks":15,"nearbyStations":[{"id":460,"distance":0.17158621356901},{"id":532,"distance":0.17528430686783},{"id":389,"distance":0.20223875186232},{"id":539,"distance":0.2275334329406},{"id":443,"distance":0.29151646967181}]},{"id":482,"status":"Active","latitude":40.73935542,"longitude":-73.99931783,"label":"W 15 St & 7 Ave","stationAddress":"","availableBikes":11,"availableDocks":26,"nearbyStations":[{"id":223,"distance":0.11140784803635},{"id":284,"distance":0.17537199581511},{"id":116,"distance":0.20247626813278},{"id":345,"distance":0.23079597170275},{"id":334,"distance":0.23555249161762}]},{"id":483,"status":"Active","latitude":40.73223272,"longitude":-73.98889957,"label":"E 12 St & 3 Ave","stationAddress":"","availableBikes":0,"availableDocks":34,"nearbyStations":[{"id":357,"distance":0.142869676206},{"id":293,"distance":0.16618971568254},{"id":237,"distance":0.16662008311358},{"id":297,"distance":0.17261122738359},{"id":285,"distance":0.18666110238769}]},{"id":484,"status":"Active","latitude":40.75500254,"longitude":-73.98014437,"label":"W 44 St & 5 Ave","stationAddress":"","availableBikes":4,"availableDocks":39,"nearbyStations":[{"id":524,"distance":0.159433255359},{"id":318,"distance":0.16802501609985},{"id":493,"distance":0.19080107224529},{"id":153,"distance":0.21758171605149},{"id":519,"distance":0.25110012313147}]},{"id":485,"status":"Active","latitude":40.75038009,"longitude":-73.98338988,"label":"W 37 St & 5 Ave","stationAddress":"","availableBikes":2,"availableDocks":36,"nearbyStations":[{"id":153,"distance":0.14823679268702},{"id":526,"distance":0.20407622370426},{"id":267,"distance":0.22700148463799},{"id":362,"distance":0.23608693503996},{"id":533,"distance":0.2698085124095}]},{"id":486,"status":"Active","latitude":40.7462009,"longitude":-73.98855723,"label":"Broadway & W 29 St","stationAddress":"","availableBikes":2,"availableDocks":36,"nearbyStations":[{"id":474,"distance":0.115174325841},{"id":498,"distance":0.16410111262636},{"id":505,"distance":0.19432714647112},{"id":526,"distance":0.21602968772297},{"id":466,"distance":0.21682769195388}]},