{"ok":true,"meta":[],"results":[{"id":72,"status":"Inactive","lastCommunication":1489743720,"latitude":40.76727216,"longitude":-73.99392888,"label":"W 52 St & 11 Ave","stationAddress":"","availableBikes":0,"availableDocks":34,"nearbyStations":[{"id":457,"distance":0.64069540350029},{"id":173,"distance":0.67035167034121},{"id":492,"distance":1.1900388833379},{"id":153,"distance":1.2323621384222},{"id":3160,"distance":1.3297900517157}]},{"id":79,"status":"Inactive","lastCommunication":1489743788,"latitude":40.71911552,"longitude":-74.00666661,"label":"Franklin St & W Broadway","stationAddress":"","availableBikes":0,"availableDocks":30,"nearbyStations":[{"id":377,"distance":0.23549598724419},{"id":386,"distance":0.36626663909837},{"id":387,"distance":0.45403574021596},{"id":3256,"distance":0.64168975082015},{"id":412,"distance":0.69039871850273}]},{"id":82,"status":"Inactive","lastCommunication":1489743723,"latitude":40.71117416,"longitude":-74.00016545,"label":"St James Pl & Pearl St","stationAddress":"","availableBikes":0,"availableDocks":23,"nearbyStations":[{"id":387,"distance":0.25636076076019},{"id":386,"distance":0.28465583111385},{"id":295,"distance":0.4280125661945},{"id":412,"distance":0.44687450512214},{"id":377,"distance":0.82987585934932}]},{"id":83,"status":"Inactive","lastCommunication":1489743718,"latitude":40.68382604,"longitude":-73.97632328,"label":"Atlantic Ave & Fort Greene Pl","stationAddress":"","availableBikes":0,"availableDocks":36,"nearbyStations":[{"id":3417,"distance":0.31595374915437},{"id":3339,"distance":0.51649562348952},{"id":3049,"distance":0.69981104452542},{"id":365,"distance":0.7866565392278},{"id":364,"distance":0.91558761386768}]},{"id":116,"status":"Active","lastCommunication":1489743832,"latitude":40.74177603,"longitude":-74.00149746,"label":"W 17 St & 8 Ave","stationAddress":"","availableBikes":6,"availableDocks":31,"nearbyStations":[{"id":225,"distance":0.34221495840785},{"id":369,"distance":0.66199219739393},{"id":492,"distance":0.80298554193645},{"id":3256,"distance":1.0987650092787},{"id":153,"distance":1.2595923163641}]},{"id":119,"status":"Inactive","lastCommunication":1489743842,"latitude":40.69608941,"longitude":-73.97803415,"label":"Park Ave & St Edwards St","stationAddress":"","availableBikes":0,"availableDocks":8,"nearbyStations":[{"id":364,"distance":1.0530463894869},{"id":3049,"distance":1.103204481918},{"id":3417,"distance":1.1413150070817},{"id":398,"distance":1.1898586697912},{"id":409,"distance":1.1925812924943}]},{"id":120,"status":"Inactive","lastCommunication":1489743709,"latitude":40.68676793,"longitude":-73.95928168,"label":"Lexington Ave & Classon Ave","stationAddress":"","availableBikes":0,"availableDocks":11,"nearbyStations":[{"id":364,"distance":0.16246560107512},{"id":3049,"distance":0.23621179713434},{"id":409,"distance":0.30698866592762},{"id":365,"distance":0.33354940222033},{"id":3417,"distance":1.1252718189375}]},{"id":127,"status":"Inactive","lastCommunication":1489743852,"latitude":40.73172428,"longitude":-74.00674436,"label":"Barrow St & Hudson St","stationAddress":"","availableBikes":0,"availableDocks":19,"nearbyStations":[{"id":369,"distance":0.34119005277735},{"id":3256,"distance":0.3654826084529},{"id":377,"distance":0.64414861445511},{"id":225,"distance":0.70986707774364},{"id":116,"distance":0.7469047760113}]},{"id":128,"status":"Inactive","lastCommunication":1489743770,"latitude":40.72710258,"longitude":-74.00297088,"label":"MacDougal St & Prince St","stationAddress":"","availableBikes":0,"availableDocks":19,"nearbyStations":[{"id":377,"distance":0.351825104287},{"id":369,"distance":0.38231128966508},{"id":3256,"distance":0.43796315213495},{"id":428,"distance":0.81015704132791},{"id":386,"distance":0.84048699433148}]},{"id":137,"status":"Inactive","lastCommunication":0,"latitude":40.761628,"longitude":-73.972924,"label":"E 56 St & Madison Ave","stationAddress":"","availableBikes":0,"availableDocks":0,"nearbyStations":[{"id":457,"distance":0.58823272112057},{"id":3376,"distance":0.59948740557604},{"id":173,"distance":0.6107812726964},{"id":153,"distance":0.80288995613156},{"id":3160,"distance":1.1989155530951}]},{"id":143,"status":"Inactive","lastCommunication":1489743768,"latitude":40.69239502,"longitude":-73.99337909,"label":"Clinton St & Joralemon St","stationAddress":"","availableBikes":0,"availableDocks":20,"nearbyStations":[{"id":398,"distance":0.34955107758503},{"id":3417,"distance":1.1782354469792},{"id":3339,"distance":1.3461203130257},{"id":295,"distance":1.4976360298562},{"id":387,"distance":1.5234043673332}]},{"id":144,"status":"Inactive","lastCommunication":1489743747,"latitude":40.69839895,"longitude":-73.98068914,"label":"Nassau St & Navy St","stationAddress":"","availableBikes":0,"availableDocks":2,"nearbyStations":[{"id":398,"distance":1.1129152334568},{"id":364,"distance":1.2527181449776},{"id":295,"distance":1.2584716415798},{"id":3417,"distance":1.3054004821144},{"id":3049,"distance":1.3143852989401}]},{"id":146,"status":"Inactive","lastCommunication":1489743769,"latitude":40.71625008,"longitude":-74.0091059,"label":"Hudson St & Reade St","stationAddress":"","availableBikes":0,"availableDocks":35,"nearbyStations":[{"id":387,"distance":0.33850050585924},{"id":386,"distance":0.36534801972266},{"id":377,"distance":0.46400154452106},{"id":412,"distance":0.7800004470058},{"id":3256,"distance":0.80039242423247}]},{"id":147,"status":"Inactive","lastCommunication":1487861307,"latitude":40.71542197,"longitude":-74.01121978,"label":"Greenwich St & Warren St","stationAddress":"","availableBikes":0,"availableDocks":0,"nearbyStations":[{"id":387,"distance":0.3930275247684},{"id":386,"distance":0.46596302147689},{"id":377,"distance":0.56538802413127},{"id":3256,"distance":0.84936427710771},{"id":412,"distance":0.89055246482413}]},{"id":150,"status":"Inactive","lastCommunication":1489743715,"latitude":40.7208736,"longitude":-73.98085795,"label":"E 2 St & Avenue C","stationAddress":"","availableBikes":0,"availableDocks":17,"nearbyStations":[{"id":302,"distance":0.15327521004094},{"id":428,"distance":0.45004010099013},{"id":511,"distance":0.61070416096722},{"id":412,"distance":0.78237747397178},{"id":295,"distance":0.78837945484085}]},{"id":151,"status":"Inactive","lastCommunication":1489743770,"latitude":40.722103786686,"longitude":-73.997249007225,"label":"Cleveland Pl & Spring St","stationAddress":"","availableBikes":0,"availableDocks":24,"nearbyStations":[{"id":377,"distance":0.44130116188099},{"id":412,"distance":0.46249076635982},{"id":428,"distance":0.52411364206366},{"id":386,"distance":0.56186640050226},{"id":295,"distance":0.59946238873774}]},{"id":152,"status":"Inactive","lastCommunication":1489743820,"latitude":40.71473993,"longitude":-74.00910627,"label":"Warren St & Church St","stationAddress":"","availableBikes":0,"availableDocks":29,"nearbyStations":[{"id":387,"distance":0.27342092107336},{"id":386,"distance":0.35441324648156},{"id":377,"distance":0.56162722979004},{"id":412,"distance":0.78298552726436},{"id":295,"distance":0.84801457708253}]},{"id":153,"status":"Active","lastCommunication":1489743891,"latitude":40.752062307,"longitude":-73.9816324043,"label":"E 40 St & 5 Ave","stationAddress":"","availableBikes":1,"availableDocks":53,"nearbyStations":[{"id":492,"distance":0.50345125065699},{"id":173,"distance":0.61465643006284},{"id":2012,"distance":0.90769818982108},{"id":457,"distance":1.0289276143093},{"id":116,"distance":1.2595923163641}]},{"id":157,"status":"Inactive","lastCommunication":1489743724,"latitude":40.69089272,"longitude":-73.99612349,"label":"Henry St & Atlantic Ave","stationAddress":"","availableBikes":0,"availableDocks":1,"nearbyStations":[{"id":398,"distance":0.20867711578988},{"id":3417,"distance":1.2080092118476},{"id":3339,"distance":1.356694220878},{"id":3352,"distance":1.42334601762},{"id":387,"distance":1.5731649912516}]},{"id":161,"status":"Inactive","lastCommunication":1489743789,"latitude":40.72917025,"longitude":-73.99810231,"label":"LaGuardia Pl & W 3 St","stationAddress":"","availableBikes":0,"availableDocks":4,"nearbyStations":[{"id":369,"distance":0.24049415385452},{"id":377,"distance":0.61090470082761},{"id":428,"distance":0.62087687096995},{"id":3256,"distance":0.69813453079873},{"id":116,"distance":0.88898280600088}]},{"id":164,"status":"Inactive","lastCommunication":1489743754,"latitude":40.75323098,"longitude":-73.97032517,"label":"E 47 St & 2 Ave","stationAddress":"","availableBikes":0,"availableDocks":46,"nearbyStations":[{"id":153,"distance":0.59734735601915},{"id":3376,"distance":0.8999913570927},{"id":173,"distance":0.90427889997669},{"id":2012,"distance":1.0111896536224},{"id":492,"distance":1.0987408846864}]},{"id":167,"status":"Inactive","lastCommunication":1489743817,"latitude":40.7489006,"longitude":-73.97604882,"label":"E 39 St & 3 Ave","stationAddress":"","availableBikes":0,"availableDocks":43,"nearbyStations":[{"id":153,"distance":0.36490082406769},{"id":2012,"distance":0.65456044596664},{"id":492,"distance":0.78417530548117},{"id":173,"distance":0.92724791958268},{"id":457,"distance":1.2818967345216}]},{"id":168,"status":"Inactive","lastCommunication":1489743760,"latitude":40.73971301,"longitude":-73.99456405,"label":"W 18 St & 6 Ave","stationAddress":"","availableBikes":0,"availableDocks":39,"nearbyStations":[{"id":116,"distance":0.38997356336351},{"id":369,"distance":0.59633018240437},{"id":225,"distance":0.72175787759692},{"id":492,"distance":0.74916786959903},{"id":2012,"distance":0.92989138689829}]},{"id":173,"status":"Active","lastCommunication":1489743871,"latitude":40.760683270966,"longitude":-73.984527289867,"label":"Broadway & W 49 St","stationAddress":"","availableBikes":2,"availableDocks":49,"nearbyStations":[{"id":457,"distance":0.45791911353523},{"id":153,"distance":0.61465643006284},{"id":492,"distance":0.79815775698315},{"id":3376,"distance":1.2002708839984},{"id":3160,"distance":1.3836388098028}]},{"id":174,"status":"Inactive","lastCommunication":1489743810,"latitude":40.7381765,"longitude":-73.97738662,"label":"E 25 St & 1 Ave","stationAddress":"","availableBikes":0,"availableDocks":20,"nearbyStations":[{"id":2012,"distance":0.092771887492447},{"id":511,"distance":0.60760086864688},{"id":153,"distance":0.98488361977428},{"id":428,"distance":1.0813447263548},{"id":492,"distance":1.0922279767592}]},{"id":195,"status":"Inactive","lastCommunication":1489743760,"latitude":40.70905623,"longitude":-74.01043382,"label":"Liberty St & Broadway","stationAddress":"","availableBikes":0,"availableDocks":45,"nearbyStations":[{"id":387,"distance":0.39706866088043},{"id":386,"distance":0.58756670861839},{"id":377,"distance":0.95779091167489},{"id":412,"distance":0.96900002443559},{"id":295,"distance":0.97952898075885}]},{"id":212,"status":"Inactive","lastCommunication":1489743753,"latitude":40.74334935,"longitude":-74.00681753,"label":"W 16 St & The High Line","stationAddress":"","availableBikes":0,"availableDocks":27,"nearbyStations":[{"id":225,"distance":0.11558882759232},{"id":116,"distance":0.29898004698653},{"id":369,"distance":0.84074814404831},{"id":492,"distance":0.95692204801619},{"id":3256,"distance":1.1055095767928}]},{"id":216,"status":"Inactive","lastCommunication":1489743783,"latitude":40.70037867,"longitude":-73.99548059,"label":"Columbia Heights & Cranberry St","stationAddress":"","availableBikes":0,"availableDocks":20,"nearbyStations":[{"id":398,"distance":0.64741111716636},{"id":295,"distance":0.95513017896183},{"id":387,"distance":0.97837879546853},{"id":412,"distance":1.0686775555795},{"id":386,"distance":1.0689887467192}]},{"id":217,"status":"Inactive","lastCommunication":1489743771,"latitude":40.70277159,"longitude":-73.99383605,"label":"Old Fulton St","stationAddress":"","availableBikes":0,"availableDocks":10,"nearbyStations":[{"id":295,"distance":0.78187548404369},{"id":398,"distance":0.83301255935695},{"id":387,"distance":0.88997002687911},{"id":412,"distance":0.90153130995583},{"id":386,"distance":0.95211431591478}]},{"id":223,"status":"Inactive","lastCommunication":1479818387,"latitude":40.73781509,"longitude":-73.99994661,"label":"W 13 St & 7 Ave","stationAddress":"","availableBikes":0,"availableDocks":3,"nearbyStations":[{"id":116,"distance":0.28548081862047},{"id":369,"distance":0.38550123262552},{"id":225,"distance":0.51067336978043},{"id":3256,"distance":0.91665497215035},{"id":492,"distance":0.97729097988929}]},{"id":224,"status":"Inactive","lastCommunication":1489743756,"latitude":40.71146364,"longitude":-74.00552427,"label":"Spruce St & Nassau St","stationAddress":"","availableBikes":0,"availableDocks":28,"nearbyStations":[{"id":387,"distance":0.099977314635144},{"id":386,"distance":0.29274241103823},{"id":412,"distance":0.66387150791728},{"id":295,"distance":0.68324959218232},{"id":377,"distance":0.75833522839691}]},{"id":225,"status":"Active","lastCommunication":1489743825,"latitude":40.74195138,"longitude":-74.00803013,"label":"W 14 St & The High Line","stationAddress":"","availableBikes":20,"availableDocks":17,"nearbyStations":[{"id":116,"distance":0.34221495840785},{"id":369,"distance":0.78454075936449},{"id":3256,"distance":0.99851100655358},{"id":492,"distance":1.0611824700105},{"id":377,"distance":1.3540072789761}]},{"id":228,"status":"Inactive","lastCommunication":1489743798,"latitude":40.7546011026,"longitude":-73.971878855,"label":"E 48 St & 3 Ave","stationAddress":"","availableBikes":0,"availableDocks":55,"nearbyStations":[{"id":153,"distance":0.5398310731148},{"id":173,"distance":0.7841483315657},{"id":3376,"distance":0.86269764584553},{"id":457,"distance":0.99614755703902},{"id":492,"distance":1.0425957350075}]},{"id":229,"status":"Inactive","lastCommunication":1489743862,"latitude":40.72743423,"longitude":-73.99379025,"label":"Great Jones St","stationAddress":"","availableBikes":0,"availableDocks":19,"nearbyStations":[{"id":428,"distance":0.36546874844961},{"id":369,"distance":0.47458034191171},{"id":377,"distance":0.71120840633709},{"id":412,"distance":0.80314695611332},{"id":511,"distance":0.85201094937746}]},{"id":232,"status":"Inactive","lastCommunication":1489743770,"latitude":40.69597683,"longitude":-73.99014892,"label":"Cadman Plaza E & Tillary St","stationAddress":"","availableBikes":0,"availableDocks":9,"nearbyStations":[{"id":398,"distance":0.59540908648883},{"id":295,"distance":1.2584798673063},{"id":3417,"distance":1.2858949663838},{"id":387,"distance":1.3834956739382},{"id":412,"distance":1.3873210295157}]},{"id":236,"status":"Inactive","lastCommunication":1489743725,"latitude":40.7284186,"longitude":-73.98713956,"label":"St Marks Pl & 2 Ave","stationAddress":"","availableBikes":0,"availableDocks":2,"nearbyStations":[{"id":428,"distance":0.26106693363442},{"id":511,"distance":0.4975261100489},{"id":302,"distance":0.71243363821934},{"id":369,"distance":0.73622297854289},{"id":2012,"distance":0.93446422964987}]},{"id":237,"status":"Inactive","lastCommunication":1489743758,"latitude":40.73047309,"longitude":-73.98672378,"label":"E 11 St & 2 Ave","stationAddress":"","availableBikes":0,"availableDocks":3,"nearbyStations":[{"id":428,"distance":0.40467982270705},{"id":511,"distance":0.47716866762392},{"id":369,"distance":0.71942011000909},{"id":2012,"distance":0.8086818588921},{"id":302,"distance":0.80999555875456}]},{"id":238,"status":"Inactive","lastCommunication":1489743754,"latitude":40.7361967,"longitude":-74.00859207,"label":"Bank St & Washington St","stationAddress":"","availableBikes":0,"availableDocks":3,"nearbyStations":[{"id":225,"distance":0.39872136927461},{"id":369,"distance":0.51462483563489},{"id":116,"distance":0.53533961867568},{"id":3256,"distance":0.60298200820791},{"id":377,"distance":0.96297517157804}]},{"id":239,"status":"Inactive","lastCommunication":1489743759,"latitude":40.69196566,"longitude":-73.9813018,"label":"Willoughby St & Fleet St","stationAddress":"","availableBikes":0,"availableDocks":31,"nearbyStations":[{"id":3417,"distance":0.86811417900239},{"id":398,"distance":0.97874942196831},{"id":3049,"distance":1.0748048672059},{"id":3339,"distance":1.0768199382039},{"id":364,"distance":1.1223704412654}]},{"id":241,"status":"Inactive","lastCommunication":1489743819,"latitude":40.68981035,"longitude":-73.97493121,"label":"DeKalb Ave & S Portland Ave","stationAddress":"","availableBikes":0,"availableDocks":5,"nearbyStations":[{"id":3049,"distance":0.71009958558812},{"id":3417,"distance":0.73210462219673},{"id":364,"distance":0.7718131601694},{"id":365,"distance":0.87895755914754},{"id":3339,"distance":0.93614764000192}]},{"id":242,"status":"Inactive","lastCommunication":1489743891,"latitude":40.697787,"longitude":-73.973736,"label":"Carlton Ave & Flushing Ave","stationAddress":"","availableBikes":0,"availableDocks":15,"nearbyStations":[{"id":364,"distance":0.93183490783809},{"id":409,"distance":1.0320645708026},{"id":3049,"distance":1.0532877357898},{"id":3078,"distance":1.0766576178449},{"id":365,"distance":1.2526234845855}]},{"id":243,"status":"Inactive","lastCommunication":1489743702,"latitude":40.688226,"longitude":-73.979382,"label":"Fulton St & Rockwell Pl","stationAddress":"","availableBikes":0,"availableDocks":8,"nearbyStations":[{"id":3417,"distance":0.59924164361417},{"id":3339,"distance":0.80955316294659},{"id":3049,"distance":0.88691721925642},{"id":364,"distance":1.0044475293968},{"id":365,"distance":1.0264266569974}]},{"id":244,"status":"Inactive","lastCommunication":1489743714,"latitude":40.69196035,"longitude":-73.96536851,"label":"Willoughby Ave & Hall St","stationAddress":"","availableBikes":0,"availableDocks":18,"nearbyStations":[{"id":364,"distance":0.3375734338013},{"id":409,"distance":0.47693108236494},{"id":3049,"distance":0.50421737514144},{"id":365,"distance":0.70275628604192},{"id":3417,"distance":1.0996341421251}]},{"id":245,"status":"Inactive","lastCommunication":1489743785,"latitude":40.69327018,"longitude":-73.97703874,"label":"Myrtle Ave & St Edwards St","stationAddress":"","availableBikes":0,"availableDocks":19,"nearbyStations":[{"id":364,"distance":0.92824081608433},{"id":3049,"distance":0.93490398941749},{"id":3417,"distance":0.94949958252943},{"id":409,"distance":1.0947486019041},{"id":365,"distance":1.1172144697143}]},{"id":247,"status":"Inactive","lastCommunication":1489743751,"latitude":40.73535398,"longitude":-74.00483091,"label":"Perry St & Bleecker St","stationAddress":"","availableBikes":0,"availableDocks":8,"nearbyStations":[{"id":369,"distance":0.32162197077275},{"id":116,"distance":0.47683384259408},{"id":225,"distance":0.4856612187022},{"id":3256,"distance":0.62710459208022},{"id":377,"distance":0.89353167756938}]},{"id":248,"status":"Inactive","lastCommunication":1489743747,"latitude":40.72185379,"longitude":-74.00771779,"label":"Laight St & Hudson St","stationAddress":"","availableBikes":0,"availableDocks":21,"nearbyStations":[{"id":377,"distance":0.11485674156003},{"id":3256,"distance":0.44617728277383},{"id":386,"distance":0.55395692896238},{"id":387,"distance":0.65096045084686},{"id":369,"distance":0.81700748002932}]},{"id":249,"status":"Inactive","lastCommunication":1489743811,"latitude":40.71870987,"longitude":-74.0090009,"label":"Harrison St & Hudson St","stationAddress":"","availableBikes":0,"availableDocks":24,"nearbyStations":[{"id":377,"distance":0.31126992792631},{"id":386,"distance":0.43483431858993},{"id":387,"distance":0.47278583809787},{"id":3256,"distance":0.63366867329561},{"id":412,"distance":0.79933247625592}]},{"id":251,"status":"Inactive","lastCommunication":1489743764,"latitude":40.72317958,"longitude":-73.99480012,"label":"Mott St & Prince St","stationAddress":"","availableBikes":0,"availableDocks":15,"nearbyStations":[{"id":428,"distance":0.37917810619205},{"id":412,"distance":0.50973490954182},{"id":377,"distance":0.57123775974845},{"id":295,"distance":0.63717805938806},{"id":369,"distance":0.68840487742644}]},{"id":252,"status":"Inactive","lastCommunication":1489743776,"latitude":40.73226398,"longitude":-73.99852205,"label":"MacDougal St & Washington Sq","stationAddress":"","availableBikes":0,"availableDocks":13,"nearbyStations":[{"id":369,"distance":0.09121874403421},{"id":116,"distance":0.6754687227476},{"id":3256,"distance":0.73905449434672},{"id":428,"distance":0.76682631001498},{"id":377,"distance":0.77514851044639}]},{"id":253,"status":"Inactive","lastCommunication":1489743765,"latitude":40.73543934,"longitude":-73.99453948,"label":"W 13 St & 5 Ave","stationAddress":"","availableBikes":0,"availableDocks":51,"nearbyStations":[{"id":369,"distance":0.37238304096182},{"id":116,"distance":0.56957490822843},{"id":428,"distance":0.82235607736164},{"id":225,"distance":0.8374544023006},{"id":2012,"distance":0.96882826009096}]},{"id":254,"status":"Inactive","lastCommunication":1489743736,"latitude":40.73532427,"longitude":-73.99800419,"label":"W 11 St & 6 Ave","stationAddress":"","availableBikes":0,"availableDocks":22,"nearbyStations":[{"id":369,"distance":0.24368474889648},{"id":116,"distance":0.48185814573623},{"id":225,"distance":0.69657391493266},{"id":3256,"distance":0.87227419791165},{"id":428,"distance":0.90819207609986}]},{"id":257,"status":"Inactive","lastCommunication":1489743753,"latitude":40.71939226,"longitude":-74.00247214,"label":"Lispenard St & Broadway","stationAddress":"","availableBikes":0,"availableDocks":22,"nearbyStations":[{"id":377,"distance":0.26877064182231},{"id":386,"distance":0.30715518202034},{"id":387,"distance":0.4735545486642},{"id":412,"distance":0.49768613226584},{"id":295,"distance":0.62022458531697}]},{"id":258,"status":"Inactive","lastCommunication":1489743756,"latitude":40.68940747,"longitude":-73.96885458,"label":"DeKalb Ave & Vanderbilt Ave","stationAddress":"","availableBikes":0,"availableDocks":19,"nearbyStations":[{"id":3049,"distance":0.43667269098797},{"id":364,"distance":0.45228476267769},{"id":365,"distance":0.62931278272772},{"id":409,"distance":0.65653945585829},{"id":3417,"distance":0.84823233975159}]},{"id":259,"status":"Inactive","lastCommunication":1489743770,"latitude":40.70122128,"longitude":-74.01234218,"label":"South St & Whitehall St","stationAddress":"","availableBikes":0,"availableDocks":32,"nearbyStations":[{"id":387,"distance":0.89264901475888},{"id":398,"distance":0.92560251007472},{"id":386,"distance":1.0834387680345},{"id":295,"distance":1.3493369755127},{"id":412,"distance":1.3847614047137}]},{"id":260,"status":"Inactive","lastCommunication":1489743753,"latitude":40.70365182,"longitude":-74.01167797,"label":"Broad St & Bridge St","stationAddress":"","availableBikes":0,"availableDocks":33,"nearbyStations":[{"id":387,"distance":0.7286101562928},{"id":386,"distance":0.92099063286356},{"id":398,"distance":1.031098926525},{"id":295,"distance":1.2170635580544},{"id":412,"distance":1.2418521892917}]},{"id":261,"status":"Inactive","lastCommunication":1489743758,"latitude":40.69474881,"longitude":-73.98362464,"label":"Johnson St & Gold St","stationAddress":"","availableBikes":0,"availableDocks":15,"nearbyStations":[{"id":398,"distance":0.8831131883342},{"id":3417,"distance":1.0815587737211},{"id":3049,"distance":1.2759925697658},{"id":3339,"distance":1.2875088175836},{"id":364,"distance":1.2879251703525}]},{"id":262,"status":"Inactive","lastCommunication":1489743696,"latitude":40.6917823,"longitude":-73.9737299,"label":"Washington Park","stationAddress":"","availableBikes":0,"availableDocks":20,"nearbyStations":[{"id":364,"distance":0.7324477817048},{"id":3049,"distance":0.73564021090844},{"id":3417,"distance":0.88038304737383},{"id":409,"distance":0.90969679327504},{"id":365,"distance":0.92136907115611}]},{"id":264,"status":"Inactive","lastCommunication":1489743693,"latitude":40.70706456,"longitude":-74.00731853,"label":"Maiden Ln & Pearl St","stationAddress":"","availableBikes":0,"availableDocks":17,"nearbyStations":[{"id":387,"distance":0.41660220382464},{"id":386,"distance":0.60381767429082},{"id":295,"distance":0.89516779703978},{"id":412,"distance":0.91434602126622},{"id":377,"distance":1.0657921834036}]},{"id":265,"status":"Inactive","lastCommunication":1489743804,"latitude":40.72229346,"longitude":-73.99147535,"label":"Stanton St & Chrystie St","stationAddress":"","availableBikes":0,"availableDocks":8,"nearbyStations":[{"id":428,"distance":0.25196884844764},{"id":412,"distance":0.47018264844776},{"id":295,"distance":0.57359692451877},{"id":302,"distance":0.71644535645501},{"id":377,"distance":0.74311599184693}]},{"id":266,"status":"Inactive","lastCommunication":1489743734,"latitude":40.72368361,"longitude":-73.97574813,"label":"Avenue D & E 8 St","stationAddress":"","availableBikes":0,"availableDocks":1,"nearbyStations":[{"id":302,"distance":0.22803527582911},{"id":511,"distance":0.40743996503815},{"id":428,"distance":0.63661116772526},{"id":3109,"distance":1.0362203692616},{"id":2012,"distance":1.0904816632113}]},{"id":267,"status":"Inactive","lastCommunication":1489743776,"latitude":40.75097711,"longitude":-73.98765428,"label":"Broadway & W 36 St","stationAddress":"","availableBikes":0,"availableDocks":37,"nearbyStations":[{"id":492,"distance":0.17972358151162},{"id":153,"distance":0.32400947429552},{"id":173,"distance":0.69035457574439},{"id":116,"distance":0.9640321668278},{"id":2012,"distance":0.97850418779918}]},{"id":268,"status":"Inactive","lastCommunication":1489743736,"latitude":40.71910537,"longitude":-73.99973337,"label":"Howard St & Centre St","stationAddress":"","availableBikes":0,"availableDocks":14,"nearbyStations":[{"id":386,"distance":0.31815567065288},{"id":412,"distance":0.36733841396488},{"id":377,"distance":0.38665323427117},{"id":295,"distance":0.49782732149425},{"id":387,"distance":0.50897594415172}]},{"id":270,"status":"Inactive","lastCommunication":1489743702,"latitude":40.69308257,"longitude":-73.97178913,"label":"Adelphi St & Myrtle Ave","stationAddress":"","availableBikes":0,"availableDocks":7,"nearbyStations":[{"id":364,"distance":0.66755249677238},{"id":3049,"distance":0.72895040571419},{"id":409,"distance":0.82200977825187},{"id":365,"distance":0.92474065526257},{"id":3417,"distance":0.99819591525285}]},{"id":274,"status":"Inactive","lastCommunication":1489743682,"latitude":40.68691865,"longitude":-73.976682,"label":"Lafayette Ave & Fort Greene Pl","stationAddress":"","availableBikes":0,"availableDocks":11,"nearbyStations":[{"id":3417,"distance":0.51667112034741},{"id":3339,"distance":0.72388339349243},{"id":3049,"distance":0.7285390473392},{"id":365,"distance":0.86091908239364},{"id":364,"distance":0.87352185269605}]},{"id":275,"status":"Inactive","lastCommunication":1489743803,"latitude":40.68650065,"longitude":-73.96563307,"label":"Washington Ave & Greene Ave","stationAddress":"","availableBikes":0,"availableDocks":8,"nearbyStations":[{"id":3049,"distance":0.17606888437084},{"id":364,"distance":0.33139011802973},{"id":365,"distance":0.36723551890849},{"id":409,"distance":0.56092234787755},{"id":3417,"distance":0.82884073280571}]},{"id":276,"status":"Inactive","lastCommunication":1489743735,"latitude":40.71748752,"longitude":-74.0104554,"label":"Duane St & Greenwich St","stationAddress":"","availableBikes":0,"availableDocks":24,"nearbyStations":[{"id":377,"distance":0.4242159331351},{"id":387,"distance":0.44917143850953},{"id":386,"distance":0.45958714486521},{"id":3256,"distance":0.7079993918483},{"id":412,"distance":0.85790605998456}]},{"id":278,"status":"Inactive","lastCommunication":1489743730,"latitude":40.69766564,"longitude":-73.98476437,"label":"Concord St & Bridge St","stationAddress":"","availableBikes":0,"availableDocks":15,"nearbyStations":[{"id":398,"distance":0.89888050859715},{"id":295,"distance":1.211469376393},{"id":3417,"distance":1.2916252239123},{"id":412,"distance":1.3484410388413},{"id":364,"distance":1.4174572278604}]},{"id":279,"status":"Inactive","lastCommunication":1489743757,"latitude":40.707873,"longitude":-74.00167,"label":"Peck Slip & Front St","stationAddress":"","availableBikes":0,"availableDocks":31,"nearbyStations":[{"id":387,"distance":0.36935682405034},{"id":386,"distance":0.49014626439609},{"id":295,"distance":0.62631828845198},{"id":412,"distance":0.67327319103343},{"id":377,"distance":1.0279177172664}]},{"id":280,"status":"Inactive","lastCommunication":1489743744,"latitude":40.73331967,"longitude":-73.99510132,"label":"E 10 St & 5 Ave","stationAddress":"","availableBikes":0,"availableDocks":10,"nearbyStations":[{"id":369,"distance":0.28039591810428},{"id":116,"distance":0.67347147028602},{"id":428,"distance":0.70810813899563},{"id":225,"distance":0.90217378333216},{"id":3256,"distance":0.93223524420841}]},{"id":281,"status":"Inactive","lastCommunication":1489743743,"latitude":40.7643971,"longitude":-73.97371465,"label":"Grand Army Plaza & Central Park S","stationAddress":"","availableBikes":0,"availableDocks":54,"nearbyStations":[{"id":457,"distance":0.45336999693219},{"id":3376,"distance":0.60193947442182},{"id":173,"distance":0.62135690684584},{"id":153,"distance":0.94771255271436},{"id":3160,"distance":1.006804402831}]},{"id":282,"status":"Inactive","lastCommunication":1489743794,"latitude":40.707644944176,"longitude":-73.968415260315,"label":"Kent Ave & S 11 St","stationAddress":"","availableBikes":0,"availableDocks":27,"nearbyStations":[{"id":3078,"distance":0.46364914566618},{"id":3087,"distance":0.95370800498255},{"id":302,"distance":1.038379145661},{"id":3072,"distance":1.15754819925},{"id":409,"distance":1.3316232985466}]},{"id":284,"status":"Inactive","lastCommunication":1489743724,"latitude":40.7390169121,"longitude":-74.0026376103,"label":"Greenwich Ave & 8 Ave","stationAddress":"","availableBikes":0,"availableDocks":8,"nearbyStations":[{"id":116,"distance":0.19977437482364},{"id":225,"distance":0.34758631645824},{"id":369,"distance":0.48440001935909},{"id":3256,"distance":0.90303243645207},{"id":492,"distance":0.98624723371059}]},{"id":285,"status":"Inactive","lastCommunication":1489743761,"latitude":40.73454567,"longitude":-73.99074142,"label":"Broadway & E 14 St","stationAddress":"","availableBikes":0,"availableDocks":27,"nearbyStations":[{"id":369,"distance":0.5233993767149},{"id":428,"distance":0.69867298778495},{"id":116,"distance":0.75280909976587},{"id":511,"distance":0.76916456323608},{"id":2012,"distance":0.80431780719787}]},{"id":289,"status":"Inactive","lastCommunication":1489743725,"latitude":40.6845683,"longitude":-73.95881081,"label":"Monroe St & Classon Ave","stationAddress":"","availableBikes":0,"availableDocks":15,"nearbyStations":[{"id":365,"distance":0.21286719524068},{"id":3049,"distance":0.22264217609141},{"id":364,"distance":0.31552206075719},{"id":409,"distance":0.4383053617381},{"id":3417,"distance":1.090299860417}]},{"id":291,"status":"Inactive","lastCommunication":1489743764,"latitude":40.713126,"longitude":-73.984844,"label":"Madison St & Montgomery St","stationAddress":"","availableBikes":0,"availableDocks":9,"nearbyStations":[{"id":295,"distance":0.42893114192544},{"id":412,"distance":0.52522511147456},{"id":302,"distance":0.64366253237705},{"id":428,"distance":0.81337708935966},{"id":386,"distance":0.92519792956642}]},{"id":293,"status":"Inactive","lastCommunication":1489743759,"latitude":40.73028666,"longitude":-73.9907647,"label":"Lafayette St & E 8 St","stationAddress":"","availableBikes":0,"availableDocks":35,"nearbyStations":[{"id":428,"distance":0.41687151451571},{"id":369,"distance":0.51539565099817},{"id":511,"distance":0.68564392889559},{"id":302,"distance":0.93739477837667},{"id":377,"distance":0.95018721103454}]},{"id":295,"status":"Active","lastCommunication":1489743842,"latitude":40.71406667,"longitude":-73.99293911,"label":"Pike St & E Broadway","stationAddress":"","availableBikes":5,"availableDocks":18,"nearbyStations":[{"id":412,"distance":0.13830545852715},{"id":386,"distance":0.49636363259476},{"id":387,"distance":0.61803066640822},{"id":428,"distance":0.78038606906131},{"id":377,"distance":0.8824547514836}]},{"id":296,"status":"Inactive","lastCommunication":1489743667,"latitude":40.71413089,"longitude":-73.9970468,"label":"Division St & Bowery","stationAddress":"","availableBikes":0,"availableDocks":32,"nearbyStations":[{"id":412,"distance":0.18817923150514},{"id":295,"distance":0.21518258317858},{"id":386,"distance":0.28316442483564},{"id":387,"distance":0.40759484170855},{"id":377,"distance":0.73017687432832}]},{"id":297,"status":"Inactive","lastCommunication":1489743701,"latitude":40.734232,"longitude":-73.986923,"label":"E 15 St & 3 Ave","stationAddress":"","availableBikes":0,"availableDocks":9,"nearbyStations":[{"id":511,"distance":0.58657183559927},{"id":2012,"distance":0.64056064712632},{"id":428,"distance":0.66193444513808},{"id":369,"distance":0.71193577022689},{"id":116,"distance":0.9241069612322}]},{"id":301,"status":"Inactive","lastCommunication":1489743745,"latitude":40.72217444,"longitude":-73.98368779,"label":"E 2 St & Avenue B","stationAddress":"","availableBikes":0,"availableDocks":2,"nearbyStations":[{"id":428,"distance":0.2775830752387},{"id":302,"distance":0.31545972340919},{"id":511,"distance":0.58811620542506},{"id":412,"distance":0.70534237937997},{"id":295,"distance":0.7406724978743}]},{"id":302,"status":"Active","lastCommunication":1489743882,"latitude":40.72082834,"longitude":-73.97793172,"label":"Avenue D & E 3 St","stationAddress":"","availableBikes":22,"availableDocks":1,"nearbyStations":[{"id":428,"distance":0.58278275320076},{"id":511,"distance":0.59147212135642},{"id":295,"distance":0.91434291175915},{"id":412,"distance":0.92084989076888},{"id":3109,"distance":1.1935570980554}]},{"id":303,"status":"Inactive","lastCommunication":1489743893,"latitude":40.72362738,"longitude":-73.99949601,"label":"Mercer St & Spring St","stationAddress":"","availableBikes":0,"availableDocks":13,"nearbyStations":[{"id":377,"distance":0.33331359803074},{"id":369,"distance":0.59655026376551},{"id":412,"distance":0.60630212495842},{"id":428,"distance":0.61498224709782},{"id":386,"distance":0.61799812871553}]},{"id":304,"status":"Inactive","lastCommunication":1489743784,"latitude":40.70463334,"longitude":-74.01361706,"label":"Broadway & Battery Pl","stationAddress":"","availableBikes":0,"availableDocks":33,"nearbyStations":[{"id":387,"distance":0.73205632625699},{"id":386,"distance":0.92550564394982},{"id":398,"distance":1.1467632912211},{"id":295,"distance":1.2640826925473},{"id":412,"distance":1.2762433125682}]},{"id":305,"status":"Inactive","lastCommunication":1489743852,"latitude":40.76095756,"longitude":-73.96724467,"label":"E 58 St & 3 Ave","stationAddress":"","availableBikes":0,"availableDocks":29,"nearbyStations":[{"id":3376,"distance":0.36968656326606},{"id":457,"distance":0.86221926012313},{"id":173,"distance":0.90472578776534},{"id":153,"distance":0.97205468869818},{"id":3160,"distance":1.2901524571455}]},{"id":306,"status":"Inactive","lastCommunication":1489743774,"latitude":40.70823502,"longitude":-74.00530063,"label":"Cliff St & Fulton St","stationAddress":"","availableBikes":0,"availableDocks":33,"nearbyStations":[{"id":387,"distance":0.31289056808838},{"id":386,"distance":0.48900849674531},{"id":295,"distance":0.76260497851729},{"id":412,"distance":0.78163322537839},{"id":377,"distance":0.98157448619993}]},{"id":307,"status":"Inactive","lastCommunication":1489743849,"latitude":40.71427487,"longitude":-73.98990025,"label":"Canal St & Rutgers St","stationAddress":"","availableBikes":0,"availableDocks":17,"nearbyStations":[{"id":295,"distance":0.15980642771495},{"id":412,"distance":0.25020742613697},{"id":386,"distance":0.65342673785048},{"id":428,"distance":0.72687520056241},{"id":302,"distance":0.77326830083884}]},{"id":308,"status":"Inactive","lastCommunication":1489743761,"latitude":40.71307916,"longitude":-73.99851193,"label":"St James Pl & Oliver St","stationAddress":"","availableBikes":0,"availableDocks":15,"nearbyStations":[{"id":386,"distance":0.23869400300799},{"id":412,"distance":0.29358362560687},{"id":295,"distance":0.29974395247333},{"id":387,"distance":0.32014215585099},{"id":377,"distance":0.74732722267811}]},{"id":309,"status":"Inactive","lastCommunication":1489743753,"latitude":40.7149787,"longitude":-74.013012,"label":"Murray St & West St","stationAddress":"","availableBikes":0,"availableDocks":38,"nearbyStations":[{"id":387,"distance":0.46674796242031},{"id":386,"distance":0.55868137408355},{"id":377,"distance":0.64321329698225},{"id":3256,"distance":0.88456184106688},{"id":412,"distance":0.98570172009659}]},{"id":310,"status":"Inactive","lastCommunication":1489743710,"latitude":40.68926942,"longitude":-73.98912867,"label":"State St & Smith St","stationAddress":"","availableBikes":0,"availableDocks":6,"nearbyStations":[{"id":398,"distance":0.59181373855495},{"id":3417,"distance":0.86938277817488},{"id":3339,"distance":1.0425008921457},{"id":3049,"distance":1.4001708630737},{"id":3317,"distance":1.4306735910873}]},{"id":311,"status":"Inactive","lastCommunication":1489743769,"latitude":40.7172274,"longitude":-73.98802084,"label":"Norfolk St & Broome St","stationAddress":"","availableBikes":0,"availableDocks":16,"nearbyStations":[{"id":295,"distance":0.33770949497955},{"id":412,"distance":0.33918866343897},{"id":428,"distance":0.51485673479659},{"id":302,"distance":0.5840243848191},{"id":386,"distance":0.76653842408699}]},{"id":312,"status":"Inactive","lastCommunication":1489743656,"latitude":40.722055,"longitude":-73.989111,"label":"Allen St & Stanton St","stationAddress":"","availableBikes":0,"availableDocks":15,"nearbyStations":[{"id":428,"distance":0.19313272310054},{"id":412,"distance":0.50751147760942},{"id":295,"distance":0.58725524510797},{"id":302,"distance":0.59154468834795},{"id":511,"distance":0.7824251741094}]},{"id":313,"status":"Inactive","lastCommunication":1489743736,"latitude":40.69610226,"longitude":-73.96751037,"label":"Washington Ave & Park Ave","stationAddress":"","availableBikes":0,"availableDocks":9,"nearbyStations":[{"id":364,"distance":0.62103093435931},{"id":409,"distance":0.69201107441627},{"id":3049,"distance":0.81003083165654},{"id":3078,"distance":0.99409710437026},{"id":365,"distance":1.0095171927262}]},{"id":315,"status":"Inactive","lastCommunication":1489743733,"latitude":40.70355377,"longitude":-74.00670227,"label":"South St & Gouverneur Ln","stationAddress":"","availableBikes":0,"availableDocks":25,"nearbyStations":[{"id":387,"distance":0.64366172345701},{"id":386,"distance":0.81973260619431},{"id":398,"distance":0.89465228564277},{"id":295,"distance":1.0234082156599},{"id":412,"distance":1.0700633957136}]},{"id":316,"status":"Inactive","lastCommunication":1489743786,"latitude":40.70955958,"longitude":-74.00653609,"label":"Fulton St & William St","stationAddress":"","availableBikes":0,"availableDocks":38,"nearbyStations":[{"id":387,"distance":0.24140672570127},{"id":386,"distance":0.43222683186133},{"id":412,"distance":0.77634383415803},{"id":295,"distance":0.77727255717008},{"id":377,"distance":0.89103585858391}]},{"id":317,"status":"Inactive","lastCommunication":1489743760,"latitude":40.72453734,"longitude":-73.98185424,"label":"E 6 St & Avenue B","stationAddress":"","availableBikes":0,"availableDocks":15,"nearbyStations":[{"id":428,"distance":0.3132914016077},{"id":302,"distance":0.32844348577396},{"id":511,"distance":0.39881536205851},{"id":412,"distance":0.88476789612119},{"id":295,"distance":0.9276031000773}]},{"id":319,"status":"Inactive","lastCommunication":1489743737,"latitude":40.711066,"longitude":-74.009447,"label":"Fulton St & Broadway","stationAddress":"","availableBikes":0,"availableDocks":33,"nearbyStations":[{"id":387,"distance":0.27841743430326},{"id":386,"distance":0.45860696810924},{"id":377,"distance":0.81036252225304},{"id":412,"distance":0.86221618006645},{"id":295,"distance":0.88912002886458}]},{"id":320,"status":"Inactive","lastCommunication":1489743726,"latitude":40.717571,"longitude":-74.005549,"label":"Leonard St & Church St","stationAddress":"","availableBikes":0,"availableDocks":36,"nearbyStations":[{"id":386,"distance":0.24699741561215},{"id":377,"distance":0.33635019971115},{"id":387,"distance":0.3379359755475},{"id":412,"distance":0.60540858615532},{"id":295,"distance":0.70340642246039}]},{"id":321,"status":"Inactive","lastCommunication":1489743750,"latitude":40.69991755,"longitude":-73.98971773,"label":"Cadman Plaza E & Red Cross Pl","stationAddress":"","availableBikes":0,"availableDocks":23,"nearbyStations":[{"id":398,"distance":0.78432443377348},{"id":295,"distance":0.99212408670807},{"id":412,"distance":1.1235781487668},{"id":387,"distance":1.1799885671622},{"id":386,"distance":1.2312929681578}]},{"id":322,"status":"Inactive","lastCommunication":1489743790,"latitude":40.696192,"longitude":-73.991218,"label":"Clinton St & Tillary St","stationAddress":"","availableBikes":0,"availableDocks":18,"nearbyStations":[{"id":398,"distance":0.55593946595293},{"id":295,"distance":1.2383824755195},{"id":3417,"distance":1.3261462758845},{"id":387,"distance":1.3409563697495},{"id":412,"distance":1.3650459440334}]},{"id":323,"status":"Inactive","lastCommunication":1489743731,"latitude":40.69236178,"longitude":-73.98631746,"label":"Lawrence St & Willoughby St","stationAddress":"","availableBikes":0,"availableDocks":24,"nearbyStations":[{"id":398,"distance":0.7174072924819},{"id":3417,"distance":0.97267149990436},{"id":3339,"distance":1.1686600748845},{"id":3049,"distance":1.3246488692966},{"id":364,"distance":1.3858957316885}]},{"id":324,"status":"Inactive","lastCommunication":1489743829,"latitude":40.689888,"longitude":-73.981013,"label":"DeKalb Ave & Hudson Ave","stationAddress":"","availableBikes":0,"availableDocks":21,"nearbyStations":[{"id":3417,"distance":0.72408909457034},{"id":3339,"distance":0.93255588389525},{"id":398,"distance":1.0011018300278},{"id":3049,"distance":1.0032647162701},{"id":364,"distance":1.0901586354249}]},{"id":325,"status":"Inactive","lastCommunication":1489743746,"latitude":40.73624527,"longitude":-73.98473765,"label":"E 19 St & 3 Ave","stationAddress":"","availableBikes":0,"availableDocks":28,"nearbyStations":[{"id":2012,"distance":0.47045475925306},{"id":511,"distance":0.59952375565638},{"id":428,"distance":0.81560312147054},{"id":369,"distance":0.85872189414951},{"id":116,"distance":0.95706363044191}]},{"id":326,"status":"Inactive","lastCommunication":1489743784,"latitude":40.72953837,"longitude":-73.98426726,"label":"E 11 St & 1 Ave","stationAddress":"","availableBikes":0,"availableDocks":0,"nearbyStations":[{"id":511,"distance":0.34276342012339},{"id":428,"distance":0.38433069168167},{"id":302,"distance":0.68722686330337},{"id":2012,"distance":0.78815397955549},{"id":369,"distance":0.85816942713149}]},{"id":327,"status":"Inactive","lastCommunication":1489743672,"latitude":40.7153379,"longitude":-74.01658354,"label":"Vesey Pl & River Terrace","stationAddress":"","availableBikes":0,"availableDocks":35,"nearbyStations":[{"id":387,"distance":0.65256678226378},{"id":386,"distance":0.74621566229519},{"id":377,"distance":0.75344867862381},{"id":3256,"distance":0.89888069422038},{"id":412,"distance":1.1715188954996}]},{"id":328,"status":"Inactive","lastCommunication":1489743834,"latitude":40.72405549,"longitude":-74.00965965,"label":"Watts St & Greenwich St","stationAddress":"","availableBikes":0,"availableDocks":3,"nearbyStations":[{"id":377,"distance":0.23719988178215},{"id":3256,"distance":0.26692240202761},{"id":386,"distance":0.73672749195778},{"id":369,"distance":0.74964646293669},{"id":387,"distance":0.82591136638923}]},{"id":330,"status":"Inactive","lastCommunication":1489743757,"latitude":40.71450451,"longitude":-74.00562789,"label":"Reade St & Broadway","stationAddress":"","availableBikes":0,"availableDocks":36,"nearbyStations":[{"id":387,"distance":0.13359063229432},{"id":386,"distance":0.17465660168633},{"id":377,"distance":0.54818626746432},{"id":412,"distance":0.60410781429119},{"id":295,"distance":0.66525064414217}]},{"id":331,"status":"Inactive","lastCommunication":1489743695,"latitude":40.71173107,"longitude":-73.99193043,"label":"Pike St & Monroe St","stationAddress":"","availableBikes":0,"availableDocks":20,"nearbyStations":[{"id":295,"distance":0.16981130183835},{"id":412,"distance":0.30671830643938},{"id":386,"distance":0.58900633646734},{"id":387,"distance":0.66755622614796},{"id":428,"distance":0.91991097905078}]},{"id":332,"status":"Inactive","lastCommunication":1489743702,"latitude":40.71219906,"longitude":-73.97948148,"label":"Cherry St","stationAddress":"","availableBikes":0,"availableDocks":4,"nearbyStations":[{"id":302,"distance":0.60176118720167},{"id":295,"distance":0.71655838767052},{"id":412,"distance":0.81154057671157},{"id":428,"distance":0.96682734213312},{"id":3078,"distance":1.0495855856358}]},{"id":334,"status":"Inactive","lastCommunication":1489743760,"latitude":40.74238787,"longitude":-73.99726235,"label":"W 20 St & 7 Ave","stationAddress":"","availableBikes":0,"availableDocks":18,"nearbyStations":[{"id":116,"distance":0.22571172605414},{"id":225,"distance":0.56452187980303},{"id":492,"distance":0.63343225814945},{"id":369,"distance":0.71850759822533},{"id":153,"distance":1.0565574285848}]},{"id":335,"status":"Inactive","lastCommunication":1489743707,"latitude":40.72903917,"longitude":-73.99404649,"label":"Washington Pl & Broadway","stationAddress":"","availableBikes":0,"availableDocks":15,"nearbyStations":[{"id":369,"distance":0.39362040143612},{"id":428,"distance":0.44347007882528},{"id":377,"distance":0.76037498708745},{"id":511,"distance":0.85500504089531},{"id":3256,"distance":0.90784999174756}]},{"id":336,"status":"Inactive","lastCommunication":1489743678,"latitude":40.73047747,"longitude":-73.99906065,"label":"Sullivan St & Washington Sq","stationAddress":"","availableBikes":0,"availableDocks":4,"nearbyStations":[{"id":369,"distance":0.13719193960375},{"id":377,"distance":0.65434797910171},{"id":3256,"distance":0.66850743966919},{"id":428,"distance":0.71148281071018},{"id":116,"distance":0.79105947361671}]},{"id":337,"status":"Inactive","lastCommunication":1489743773,"latitude":40.7037992,"longitude":-74.00838676,"label":"Old Slip & Front St","stationAddress":"","availableBikes":0,"availableDocks":37,"nearbyStations":[{"id":387,"distance":0.64824743420071},{"id":386,"distance":0.83282890505584},{"id":398,"distance":0.94791161714695},{"id":295,"distance":1.0761067610989},{"id":412,"distance":1.1134194469544}]},{"id":339,"status":"Inactive","lastCommunication":1489743788,"latitude":40.72580614,"longitude":-73.97422494,"label":"Avenue D & E 12 St","stationAddress":"","availableBikes":0,"availableDocks":5,"nearbyStations":[{"id":511,"distance":0.30788337086776},{"id":302,"distance":0.3949481403419},{"id":428,"distance":0.71690717877255},{"id":3109,"distance":0.94351273896527},{"id":2012,"distance":0.95205284319081}]},{"id":340,"status":"Inactive","lastCommunication":1489743763,"latitude":40.71269042,"longitude":-73.98776323,"label":"Madison St & Clinton St","stationAddress":"","availableBikes":0,"availableDocks":10,"nearbyStations":[{"id":295,"distance":0.28728106644331},{"id":412,"distance":0.40139111670737},{"id":302,"distance":0.76243797424971},{"id":386,"distance":0.77947150283482},{"id":428,"distance":0.82826656472762}]},{"id":341,"status":"Inactive","lastCommunication":1489743761,"latitude":40.71782143,"longitude":-73.97628939,"label":"Stanton St & Mangin St","stationAddress":"","availableBikes":0,"availableDocks":8,"nearbyStations":[{"id":302,"distance":0.22486884206569},{"id":428,"distance":0.76806702587563},{"id":511,"distance":0.80266745688313},{"id":295,"distance":0.90976913952894},{"id":412,"distance":0.94942582928619}]},{"id":342,"status":"Inactive","lastCommunication":1489743734,"latitude":40.71739973,"longitude":-73.98016555,"label":"Columbia St & Rivington St","stationAddress":"","availableBikes":0,"availableDocks":8,"nearbyStations":[{"id":302,"distance":0.26421862288685},{"id":428,"distance":0.64353854811165},{"id":295,"distance":0.70752109138133},{"id":412,"distance":0.74434726526235},{"id":511,"distance":0.83808879846392}]},{"id":343,"status":"Inactive","lastCommunication":1489743659,"latitude":40.69794,"longitude":-73.96986848,"label":"Clinton Ave & Flushing Ave","stationAddress":"","availableBikes":0,"availableDocks":6,"nearbyStations":[{"id":364,"distance":0.79734052035857},{"id":409,"distance":0.86565654696598},{"id":3078,"distance":0.94248503992122},{"id":3049,"distance":0.9707432611937},{"id":365,"distance":1.1714394875217}]},{"id":344,"status":"Inactive","lastCommunication":1489743787,"latitude":40.6851443,"longitude":-73.95380904,"label":"Monroe St & Bedford Ave","stationAddress":"","availableBikes":0,"availableDocks":7,"nearbyStations":[{"id":409,"distance":0.40444354438756},{"id":364,"distance":0.4296838784574},{"id":365,"distance":0.44849749274207},{"id":3049,"distance":0.48401960265199},{"id":3042,"distance":1.3140732761842}]},{"id":345,"status":"Inactive","lastCommunication":1489743788,"latitude":40.73649403,"longitude":-73.99704374,"label":"W 13 St & 6 Ave","stationAddress":"","availableBikes":0,"availableDocks":15,"nearbyStations":[{"id":369,"distance":0.33879426663737},{"id":116,"distance":0.43309912521353},{"id":225,"distance":0.68777564664612},{"id":428,"distance":0.94828092950953},{"id":3256,"distance":0.96172687420645}]},{"id":346,"status":"Inactive","lastCommunication":1489743822,"latitude":40.73652889,"longitude":-74.00618026,"label":"Bank St & Hudson St","stationAddress":"","availableBikes":0,"availableDocks":13,"nearbyStations":[{"id":225,"distance":0.38699549671688},{"id":369,"distance":0.4286395687174},{"id":116,"distance":0.43767481583208},{"id":3256,"distance":0.66537415972201},{"id":377,"distance":0.97402311181402}]},{"id":347,"status":"Inactive","lastCommunication":1489743791,"latitude":40.728846,"longitude":-74.008591,"label":"Greenwich St & W Houston St","stationAddress":"","availableBikes":0,"availableDocks":30,"nearbyStations":[{"id":3256,"distance":0.16178938700803},{"id":377,"distance":0.46855008386573},{"id":369,"distance":0.49512222919476},{"id":225,"distance":0.90602612833045},{"id":116,"distance":0.96755458247848}]},{"id":348,"status":"Inactive","lastCommunication":1489743708,"latitude":40.72490985,"longitude":-74.00154702,"label":"W Broadway & Spring St","stationAddress":"","availableBikes":0,"availableDocks":14,"nearbyStations":[{"id":377,"distance":0.275068608219},{"id":369,"distance":0.51101376351467},{"id":3256,"distance":0.54602395120526},{"id":386,"distance":0.68960176698863},{"id":428,"distance":0.71826565374754}]},{"id":349,"status":"Inactive","lastCommunication":1489743690,"latitude":40.71850211,"longitude":-73.98329859,"label":"Rivington St & Ridge St","stationAddress":"","availableBikes":0,"availableDocks":8,"nearbyStations":[{"id":302,"distance":0.32377784063518},{"id":428,"distance":0.48833865492001},{"id":295,"distance":0.59063563720393},{"id":412,"distance":0.60152677364224},{"id":511,"distance":0.80676979489471}]},{"id":350,"status":"Inactive","lastCommunication":1489743756,"latitude":40.71559509,"longitude":-73.9870295,"label":"Clinton St & Grand St","stationAddress":"","availableBikes":0,"availableDocks":11,"nearbyStations":[{"id":295,"distance":0.3270296240995},{"id":412,"distance":0.37708669082546},{"id":302,"distance":0.59814001193216},{"id":428,"distance":0.62896567950811},{"id":386,"distance":0.80335790006382}]},{"id":351,"status":"Inactive","lastCommunication":1489743793,"latitude":40.70530954,"longitude":-74.00612572,"label":"Front St & Maiden Ln","stationAddress":"","availableBikes":0,"availableDocks":38,"nearbyStations":[{"id":387,"distance":0.51904906228983},{"id":386,"distance":0.69481799251238},{"id":295,"distance":0.91825126362219},{"id":412,"distance":0.95687159317295},{"id":398,"distance":0.99714501503217}]},{"id":352,"status":"Inactive","lastCommunication":1482251979,"latitude":40.76340613,"longitude":-73.97722479,"label":"W 56 St & 6 Ave","stationAddress":"","availableBikes":0,"availableDocks":0,"nearbyStations":[{"id":457,"distance":0.33876075663643},{"id":173,"distance":0.42598650301956},{"id":3376,"distance":0.79045562126901},{"id":153,"distance":0.81707422459284},{"id":3160,"distance":1.0905654783452}]},{"id":353,"status":"Inactive","lastCommunication":1489743731,"latitude":40.68539567,"longitude":-73.97431458,"label":"S Portland Ave & Hanson Pl","stationAddress":"","availableBikes":0,"availableDocks":18,"nearbyStations":[{"id":3417,"distance":0.45925842253691},{"id":3049,"distance":0.59182705855055},{"id":3339,"distance":0.65009669587396},{"id":365,"distance":0.70823166911493},{"id":364,"distance":0.77853218131386}]},{"id":354,"status":"Inactive","lastCommunication":1489743713,"latitude":40.69363137,"longitude":-73.96223558,"label":"Emerson Pl & Myrtle Ave","stationAddress":"","availableBikes":0,"availableDocks":11,"nearbyStations":[{"id":364,"distance":0.33639555750303},{"id":409,"distance":0.36733269323879},{"id":3049,"distance":0.60616552765309},{"id":365,"distance":0.78874452383209},{"id":3078,"distance":1.0869750245248}]},{"id":355,"status":"Inactive","lastCommunication":1489743678,"latitude":40.71602118,"longitude":-73.99974372,"label":"Bayard St & Baxter St","stationAddress":"","availableBikes":0,"availableDocks":23,"nearbyStations":[{"id":386,"distance":0.15510022179284},{"id":412,"distance":0.28944973432301},{"id":387,"distance":0.34134686247958},{"id":295,"distance":0.38111181934598},{"id":377,"distance":0.54104746137761}]},{"id":356,"status":"Inactive","lastCommunication":1489743769,"latitude":40.71622644,"longitude":-73.98261206,"label":"Bialystoker Pl & Delancey St","stationAddress":"","availableBikes":0,"availableDocks":0,"nearbyStations":[{"id":302,"distance":0.40148670085534},{"id":295,"distance":0.56107294282356},{"id":412,"distance":0.60879282019281},{"id":428,"distance":0.64479492304818},{"id":511,"distance":0.94468897606156}]},{"id":357,"status":"Inactive","lastCommunication":1489743686,"latitude":40.73261787,"longitude":-73.99158043,"label":"E 11 St & Broadway","stationAddress":"","availableBikes":0,"availableDocks":16,"nearbyStations":[{"id":369,"distance":0.4554107044695},{"id":428,"distance":0.58269330514381},{"id":511,"distance":0.75909259853252},{"id":116,"distance":0.81855331334299},{"id":2012,"distance":0.9060388360437}]},{"id":358,"status":"Inactive","lastCommunication":1489743762,"latitude":40.73291553,"longitude":-74.00711384,"label":"Christopher St & Greenwich St","stationAddress":"","availableBikes":0,"availableDocks":4,"nearbyStations":[{"id":369,"distance":0.36167224190326},{"id":3256,"distance":0.42085839866417},{"id":225,"distance":0.62619573726521},{"id":116,"distance":0.67919250394773},{"id":377,"distance":0.72794142210308}]},{"id":359,"status":"Inactive","lastCommunication":1489743765,"latitude":40.75510267,"longitude":-73.97498696,"label":"E 47 St & Park Ave","stationAddress":"","availableBikes":0,"availableDocks":55,"nearbyStations":[{"id":153,"distance":0.40636086860132},{"id":173,"distance":0.63089653493595},{"id":457,"distance":0.89089641951594},{"id":492,"distance":0.90069963163014},{"id":3376,"distance":0.9422899065767}]},{"id":360,"status":"Inactive","lastCommunication":1489743785,"latitude":40.70717936,"longitude":-74.00887308,"label":"William St & Pine St","stationAddress":"","availableBikes":0,"availableDocks":33,"nearbyStations":[{"id":387,"distance":0.44402923301435},{"id":386,"distance":0.63644940944663},{"id":295,"distance":0.96072250040756},{"id":412,"distance":0.97201574507405},{"id":377,"distance":1.0676416118553}]},{"id":361,"status":"Inactive","lastCommunication":1489743756,"latitude":40.71605866,"longitude":-73.99190759,"label":"Allen St & Hester St","stationAddress":"","availableBikes":0,"availableDocks":6,"nearbyStations":[{"id":412,"distance":0.12245700125989},{"id":295,"distance":0.14786430564596},{"id":386,"distance":0.55198991021866},{"id":428,"distance":0.63257597677257},{"id":387,"distance":0.70371828700424}]},{"id":362,"status":"Inactive","lastCommunication":1489743664,"latitude":40.75172632,"longitude":-73.98753523,"label":"Broadway & W 37 St","stationAddress":"","availableBikes":0,"availableDocks":56,"nearbyStations":[{"id":492,"distance":0.2066799894269},{"id":153,"distance":0.30985094675815},{"id":173,"distance":0.63861467458826},{"id":116,"distance":1.0034587321564},{"id":2012,"distance":1.0176491476862}]},{"id":363,"status":"Inactive","lastCommunication":1489743777,"latitude":40.70834698,"longitude":-74.01713445,"label":"West Thames St","stationAddress":"","availableBikes":0,"availableDocks":34,"nearbyStations":[{"id":387,"distance":0.72273445006439},{"id":386,"distance":0.89893586178741},{"id":377,"distance":1.1440570979963},{"id":412,"distance":1.3062319961193},{"id":295,"distance":1.327463245963}]},{"id":364,"status":"Active","lastCommunication":1489743849,"latitude":40.68900443,"longitude":-73.96023854,"label":"Lafayette Ave & Classon Ave","stationAddress":"","availableBikes":10,"availableDocks":16,"nearbyStations":[{"id":409,"distance":0.22959858249847},{"id":3049,"distance":0.32056789556867},{"id":365,"distance":0.47232599493698},{"id":3417,"distance":1.1597157762693},{"id":3339,"distance":1.2866254154437}]},{"id":365,"status":"Active","lastCommunication":1489743862,"latitude":40.68223166,"longitude":-73.9614583,"label":"Fulton St & Grand Ave","stationAddress":"","availableBikes":10,"availableDocks":21,"nearbyStations":[{"id":3049,"distance":0.20088694223311},{"id":364,"distance":0.47232599493698},{"id":409,"distance":0.63851579147377},{"id":3417,"distance":0.91419161627111},{"id":3339,"distance":0.97454601947634}]},{"id":366,"status":"Inactive","lastCommunication":1489743825,"latitude":40.693261,"longitude":-73.968896,"label":"Clinton Ave & Myrtle Ave","stationAddress":"","availableBikes":0,"availableDocks":14,"nearbyStations":[{"id":364,"distance":0.54059586155454},{"id":3049,"distance":0.65536422149091},{"id":409,"distance":0.67752897079173},{"id":365,"distance":0.85595658149126},{"id":3417,"distance":1.0723482376488}]},{"id":367,"status":"Inactive","lastCommunication":1485440625,"latitude":40.75828065,"longitude":-73.97069431,"label":"E 53 St & Lexington Ave","stationAddress":"","availableBikes":0,"availableDocks":0,"nearbyStations":[{"id":3376,"distance":0.62814025018213},{"id":153,"distance":0.71581950803566},{"id":173,"distance":0.74278681777004},{"id":457,"distance":0.83094364055407},{"id":492,"distance":1.197387155714}]},{"id":368,"status":"Inactive","lastCommunication":1489743710,"latitude":40.73038599,"longitude":-74.00214988,"label":"Carmine St & 6 Ave","stationAddress":"","availableBikes":0,"availableDocks":16,"nearbyStations":[{"id":369,"distance":0.16181469962822},{"id":3256,"distance":0.51325407585937},{"id":377,"distance":0.57920494702148},{"id":116,"distance":0.78776519170078},{"id":428,"distance":0.847075744781}]},{"id":369,"status":"Active","lastCommunication":1489743853,"latitude":40.73224119,"longitude":-74.00026394,"label":"Washington Pl & 6 Ave","stationAddress":"","availableBikes":17,"availableDocks":17,"nearbyStations":[{"id":3256,"distance":0.65690440454848},{"id":116,"distance":0.66199219739393},{"id":377,"distance":0.73403827865933},{"id":225,"distance":0.78454075936449},{"id":428,"distance":0.83473662349737}]},{"id":372,"status":"Inactive","lastCommunication":1489743708,"latitude":40.694528,"longitude":-73.958089,"label":"Franklin Ave & Myrtle Ave","stationAddress":"","availableBikes":0,"availableDocks":13,"nearbyStations":[{"id":409,"distance":0.28171989625327},{"id":364,"distance":0.39793375950639},{"id":3049,"distance":0.7153425560298},{"id":365,"distance":0.86779283037952},{"id":3072,"distance":0.99108570103161}]},{"id":373,"status":"Inactive","lastCommunication":1489743727,"latitude":40.69331716,"longitude":-73.95381995,"label":"Willoughby Ave & Walworth St","stationAddress":"","availableBikes":0,"availableDocks":12,"nearbyStations":[{"id":409,"distance":0.22954638935969},{"id":364,"distance":0.44932228237581},{"id":3049,"distance":0.75712248780557},{"id":365,"distance":0.86423122883167},{"id":3072,"distance":0.9471949493849}]},{"id":376,"status":"Inactive","lastCommunication":1489743758,"latitude":40.70862144,"longitude":-74.00722156,"label":"John St & William St","stationAddress":"","availableBikes":0,"availableDocks":35,"nearbyStations":[{"id":387,"distance":0.31535336250265},{"id":386,"distance":0.50630604644859},{"id":295,"distance":0.83735474311574},{"id":412,"distance":0.84294305007889},{"id":377,"distance":0.95816568608663}]},{"id":377,"status":"Active","lastCommunication":1489743873,"latitude":40.72243797,"longitude":-74.00566443,"label":"6 Ave & Canal St","stationAddress":"","availableBikes":3,"availableDocks":44,"nearbyStations":[{"id":3256,"distance":0.46889926260519},{"id":386,"distance":0.5459534736359},{"id":387,"distance":0.67289490280022},{"id":369,"distance":0.73403827865933},{"id":412,"distance":0.75391115687322}]},{"id":379,"status":"Inactive","lastCommunication":1489743890,"latitude":40.749156,"longitude":-73.9916,"label":"W 31 St & 7 Ave","stationAddress":"","availableBikes":0,"availableDocks":21,"nearbyStations":[{"id":492,"distance":0.080189128865696},{"id":153,"distance":0.55907038917667},{"id":116,"distance":0.72697478497069},{"id":173,"distance":0.87833412019369},{"id":225,"distance":0.99378655399853}]},{"id":380,"status":"Inactive","lastCommunication":1489743763,"latitude":40.73401143,"longitude":-74.00293877,"label":"W 4 St & 7 Ave S","stationAddress":"","availableBikes":0,"availableDocks":30,"nearbyStations":[{"id":369,"distance":0.18594773057533},{"id":116,"distance":0.54179584458501},{"id":225,"distance":0.60995953674902},{"id":3256,"distance":0.61710207567913},{"id":377,"distance":0.8123344217833}]},{"id":382,"status":"Inactive","lastCommunication":1489743660,"latitude":40.73492695,"longitude":-73.99200509,"label":"University Pl & E 14 St","stationAddress":"","availableBikes":0,"availableDocks":11,"nearbyStations":[{"id":369,"distance":0.4705635453107},{"id":116,"distance":0.68626025268715},{"id":428,"distance":0.74114174779683},{"id":511,"distance":0.84003557378808},{"id":2012,"distance":0.854809848352}]},{"id":383,"status":"Inactive","lastCommunication":1489743686,"latitude":40.735238,"longitude":-74.000271,"label":"Greenwich Ave & Charles St","stationAddress":"","availableBikes":0,"availableDocks":18,"nearbyStations":[{"id":369,"distance":0.20707266390278},{"id":116,"distance":0.45630260438397},{"id":225,"distance":0.61660734646039},{"id":3256,"distance":0.77685908313636},{"id":377,"distance":0.92844570770811}]},{"id":384,"status":"Inactive","lastCommunication":1489743705,"latitude":40.683048,"longitude":-73.964915,"label":"Fulton St & Washington Ave","stationAddress":"","availableBikes":0,"availableDocks":2,"nearbyStations":[{"id":3049,"distance":0.16023884098272},{"id":365,"distance":0.18970729127389},{"id":364,"distance":0.47899174571972},{"id":409,"distance":0.68809965026711},{"id":3417,"distance":0.75364826405258}]},{"id":385,"status":"Inactive","lastCommunication":1489743793,"latitude":40.75797322,"longitude":-73.96603308,"label":"E 55 St & 2 Ave","stationAddress":"","availableBikes":0,"availableDocks":1,"nearbyStations":[{"id":3376,"distance":0.50699687885022},{"id":153,"distance":0.91295448121696},{"id":173,"distance":0.98590717685871},{"id":457,"distance":1.0279832776581},{"id":3125,"distance":1.1359570685593}]},{"id":386,"status":"Active","lastCommunication":1489743867,"latitude":40.71494807,"longitude":-74.00234482,"label":"Centre St & Worth St","stationAddress":"","availableBikes":1,"availableDocks":38,"nearbyStations":[{"id":387,"distance":0.19358362265627},{"id":412,"distance":0.42953316065556},{"id":295,"distance":0.49636363259476},{"id":377,"distance":0.5459534736359},{"id":3256,"distance":0.99891119292844}]},{"id":387,"status":"Active","lastCommunication":1489743880,"latitude":40.71273266,"longitude":-74.0046073,"label":"Centre St & Chambers St","stationAddress":"","availableBikes":1,"availableDocks":37,"nearbyStations":[{"id":386,"distance":0.19358362265627},{"id":412,"distance":0.58406378797317},{"id":295,"distance":0.61803066640822},{"id":377,"distance":0.67289490280022},{"id":3256,"distance":1.0928337327018}]},{"id":388,"status":"Inactive","lastCommunication":1489743740,"latitude":40.749717753,"longitude":-74.002950346,"label":"W 26 St & 10 Ave","stationAddress":"","availableBikes":0,"availableDocks":33,"nearbyStations":[{"id":116,"distance":0.55399960804312},{"id":225,"distance":0.59891130487789},{"id":492,"distance":0.63005345576349},{"id":153,"distance":1.1275904592206},{"id":369,"distance":1.2157505973423}]},{"id":389,"status":"Inactive","lastCommunication":1489743824,"latitude":40.71044554,"longitude":-73.96525063,"label":"Broadway & Berry St","stationAddress":"","availableBikes":0,"availableDocks":12,"nearbyStations":[{"id":3078,"distance":0.29597806620368},{"id":3087,"distance":0.72242623678817},{"id":302,"distance":0.97764549883106},{"id":3072,"distance":1.035249177928},{"id":3094,"distance":1.1595431074538}]},{"id":390,"status":"Inactive","lastCommunication":1489743742,"latitude":40.69221589,"longitude":-73.9842844,"label":"Duffield St & Willoughby St","stationAddress":"","availableBikes":0,"availableDocks":29,"nearbyStations":[{"id":398,"distance":0.82316737627011},{"id":3417,"distance":0.92358906520175},{"id":3339,"distance":1.1258520523935},{"id":3049,"distance":1.2230686782896},{"id":364,"distance":1.2792196541728}]},{"id":391,"status":"Inactive","lastCommunication":1489743703,"latitude":40.69760127,"longitude":-73.99344559,"label":"Clark St & Henry St","stationAddress":"","availableBikes":0,"availableDocks":26,"nearbyStations":[{"id":398,"distance":0.53491976780661},{"id":295,"distance":1.1380286507684},{"id":387,"distance":1.1979109699293},{"id":412,"distance":1.2592190131991},{"id":386,"distance":1.2860736179728}]},{"id":392,"status":"Inactive","lastCommunication":1489743861,"latitude":40.695065,"longitude":-73.987167,"label":"Jay St & Tech Pl","stationAddress":"","availableBikes":0,"availableDocks":19,"nearbyStations":[{"id":398,"distance":0.71143417533748},{"id":3417,"distance":1.1615542438865},{"id":295,"distance":1.347332954832},{"id":3339,"distance":1.3593730789705},{"id":3049,"distance":1.4467888949908}]},{"id":393,"status":"Inactive","lastCommunication":1489743811,"latitude":40.72299208,"longitude":-73.97995466,"label":"E 5 St & Avenue C","stationAddress":"","availableBikes":0,"availableDocks":15,"nearbyStations":[{"id":302,"distance":0.18323680614899},{"id":428,"distance":0.42873466040681},{"id":511,"distance":0.4570378042257},{"id":412,"distance":0.89683321506804},{"id":295,"distance":0.91801681262474}]},{"id":394,"status":"Inactive","lastCommunication":1489743790,"latitude":40.72521311,"longitude":-73.97768752,"label":"E 9 St & Avenue C","stationAddress":"","availableBikes":0,"availableDocks":7,"nearbyStations":[{"id":511,"distance":0.28840178204189},{"id":302,"distance":0.30324677726442},{"id":428,"distance":0.53262237252588},{"id":2012,"distance":0.98447182562357},{"id":412,"distance":1.0823977179944}]},{"id":395,"status":"Inactive","lastCommunication":1489743758,"latitude":40.68807003,"longitude":-73.98410637,"label":"Bond St & Schermerhorn St","stationAddress":"","availableBikes":0,"availableDocks":19,"nearbyStations":[{"id":3417,"distance":0.65513026749591},{"id":3339,"distance":0.85032211123647},{"id":398,"distance":0.86764464509528},{"id":3049,"distance":1.1255848804203},{"id":364,"distance":1.2522030315107}]},{"id":396,"status":"Inactive","lastCommunication":1489743700,"latitude":40.680342423,"longitude":-73.9557689392,"label":"Lefferts Pl & Franklin Ave","stationAddress":"","availableBikes":0,"availableDocks":17,"nearbyStations":[{"id":365,"distance":0.32545053335416},{"id":3049,"distance":0.49341904341437},{"id":364,"distance":0.6427114505473},{"id":409,"distance":0.71303864802318},{"id":3417,"distance":1.1949076475506}]},{"id":397,"status":"Inactive","lastCommunication":1489743689,"latitude":40.68415748,"longitude":-73.96922273,"label":"Fulton St & Clermont Ave","stationAddress":"","availableBikes":0,"availableDocks":22,"nearbyStations":[{"id":3049,"distance":0.32778340678824},{"id":365,"distance":0.42805339954429},{"id":364,"distance":0.57771685857142},{"id":3417,"distance":0.58227658331969},{"id":3339,"distance":0.71587905726562}]},{"id":398,"status":"Active","lastCommunication":1489743837,"latitude":40.69165183,"longitude":-73.9999786,"label":"Atlantic Ave & Furman St","stationAddress":"","availableBikes":28,"availableDocks":3,"nearbyStations":[{"id":3352,"distance":1.3904246551816},{"id":3417,"distance":1.3988753585015},{"id":387,"distance":1.4766768289158},{"id":3339,"distance":1.536879294789},{"id":295,"distance":1.5921032530705}]},{"id":399,"status":"Inactive","lastCommunication":1489743721,"latitude":40.68851534,"longitude":-73.9647628,"label":"Lafayette Ave & St James Pl","stationAddress":"","availableBikes":0,"availableDocks":15,"nearbyStations":[{"id":364,"distance":0.23944140505171},{"id":3049,"distance":0.26691988020256},{"id":409,"distance":0.46076320579227},{"id":365,"distance":0.46743733734084},{"id":3417,"distance":0.95044877797156}]},{"id":400,"status":"Inactive","lastCommunication":1489743717,"latitude":40.71926081,"longitude":-73.98178024,"label":"Pitt St & Stanton St","stationAddress":"","availableBikes":0,"availableDocks":7,"nearbyStations":[{"id":302,"distance":0.22880558840427},{"id":428,"distance":0.490488172916},{"id":295,"distance":0.68582118529157},{"id":412,"distance":0.69380160703083},{"id":511,"distance":0.73121155409096}]},{"id":401,"status":"Inactive","lastCommunication":1489743724,"latitude":40.72019576,"longitude":-73.98997825,"label":"Allen St & Rivington St","stationAddress":"","availableBikes":0,"availableDocks":21,"nearbyStations":[{"id":428,"distance":0.32938583993434},{"id":412,"distance":0.37555288002655},{"id":295,"distance":0.45100117898367},{"id":302,"distance":0.63237855207186},{"id":386,"distance":0.74225175605757}]},{"id":402,"status":"Inactive","lastCommunication":1489743757,"latitude":40.7403432,"longitude":-73.98955109,"label":"Broadway & E 22 St","stationAddress":"","availableBikes":0,"availableDocks":39,"nearbyStations":[{"id":116,"distance":0.63321544909029},{"id":2012,"distance":0.67013487123271},{"id":492,"distance":0.68489699198225},{"id":369,"distance":0.79246821930509},{"id":153,"distance":0.90969957898185}]},{"id":405,"status":"Inactive","lastCommunication":1485455060,"latitude":40.739323,"longitude":-74.008119,"label":"Washington St & Gansevoort St","stationAddress":"","availableBikes":0,"availableDocks":3,"nearbyStations":[{"id":225,"distance":0.18167429691981},{"id":116,"distance":0.38587917937037},{"id":369,"distance":0.63921139159262},{"id":3256,"distance":0.81921180629143},{"id":492,"distance":1.1723904679988}]},{"id":406,"status":"Inactive","lastCommunication":1489743752,"latitude":40.69512845,"longitude":-73.99595065,"label":"Hicks St & Montague St","stationAddress":"","availableBikes":0,"availableDocks":20,"nearbyStations":[{"id":398,"distance":0.31975079814471},{"id":387,"distance":1.2981794730326},{"id":295,"distance":1.3180592828838},{"id":3417,"distance":1.4092546609105},{"id":386,"distance":1.409850493745}]},{"id":407,"status":"Inactive","lastCommunication":1489743691,"latitude":40.700469,"longitude":-73.991454,"label":"Henry St & Poplar St","stationAddress":"","availableBikes":0,"availableDocks":15,"nearbyStations":[{"id":398,"distance":0.75539528784814},{"id":295,"distance":0.9427808626722},{"id":412,"distance":1.0702835341743},{"id":387,"distance":1.0921305589836},{"id":386,"distance":1.1516742626426}]},{"id":408,"status":"Inactive","lastCommunication":1489743765,"latitude":40.71076228,"longitude":-73.99400398,"label":"Market St & Cherry St","stationAddress":"","availableBikes":0,"availableDocks":7,"nearbyStations":[{"id":295,"distance":0.23503853146928},{"id":412,"distance":0.34935481534371},{"id":386,"distance":0.5239208720771},{"id":387,"distance":0.57180479134344},{"id":377,"distance":1.0118295607707}]},{"id":409,"status":"Active","lastCommunication":1489743892,"latitude":40.6906495,"longitude":-73.95643107,"label":"DeKalb Ave & Skillman St","stationAddress":"","availableBikes":14,"availableDocks":5,"nearbyStations":[{"id":364,"distance":0.22959858249847},{"id":3049,"distance":0.52804765650642},{"id":365,"distance":0.63851579147377},{"id":3072,"distance":1.172342574492},{"id":3078,"distance":1.2978530164372}]},{"id":410,"status":"Inactive","lastCommunication":1489743709,"latitude":40.72066442,"longitude":-73.98517977,"label":"Suffolk St & Stanton St","stationAddress":"","availableBikes":0,"availableDocks":19,"nearbyStations":[{"id":428,"distance":0.3101652409737},{"id":302,"distance":0.37974159889197},{"id":412,"distance":0.58016319441507},{"id":295,"distance":0.61071283575581},{"id":511,"distance":0.71809902288203}]},{"id":411,"status":"Inactive","lastCommunication":1489743671,"latitude":40.72228087,"longitude":-73.97668709,"label":"E 6 St & Avenue D","stationAddress":"","availableBikes":0,"availableDocks":0,"nearbyStations":[{"id":302,"distance":0.11967338600139},{"id":511,"distance":0.49400085058811},{"id":428,"distance":0.60676460152725},{"id":412,"distance":1.0212869792098},{"id":295,"distance":1.0230236727666}]},{"id":412,"status":"Active","lastCommunication":1489743859,"latitude":40.7158155,"longitude":-73.99422366,"label":"Forsyth St & Canal St","stationAddress":"","availableBikes":18,"availableDocks":10,"nearbyStations":[{"id":295,"distance":0.13830545852715},{"id":386,"distance":0.42953316065556},{"id":387,"distance":0.58406378797317},{"id":428,"distance":0.69778694216164},{"id":377,"distance":0.75391115687322}]},{"id":414,"status":"Inactive","lastCommunication":1489743768,"latitude":40.70281858,"longitude":-73.98765762,"label":"Pearl St & Anchorage Pl","stationAddress":"","availableBikes":0,"availableDocks":15,"nearbyStations":[{"id":295,"distance":0.82498035057674},{"id":412,"distance":0.96165591240891},{"id":398,"distance":1.0059740923623},{"id":387,"distance":1.1213760707595},{"id":386,"distance":1.1376509778033}]},{"id":415,"status":"Inactive","lastCommunication":1489743785,"latitude":40.7047177,"longitude":-74.00926027,"label":"Pearl St & Hanover Square","stationAddress":"","availableBikes":0,"availableDocks":33,"nearbyStations":[{"id":387,"distance":0.60506810005369},{"id":386,"distance":0.79429087296254},{"id":398,"distance":1.0254313168451},{"id":295,"distance":1.0714957554246},{"id":412,"distance":1.0992291494616}]},{"id":416,"status":"Inactive","lastCommunication":1489743758,"latitude":40.68753406,"longitude":-73.97265183,"label":"Cumberland St & Lafayette Ave","stationAddress":"","availableBikes":0,"availableDocks":5,"nearbyStations":[{"id":3049,"distance":0.53597301873882},{"id":3417,"distance":0.63073768223609},{"id":364,"distance":0.65827553643908},{"id":365,"distance":0.69154122377212},{"id":3339,"distance":0.81914728663568}]},{"id":417,"status":"Inactive","lastCommunication":1489743692,"latitude":40.71291224,"longitude":-74.01020234,"label":"Barclay St & Church St","stationAddress":"","availableBikes":0,"availableDocks":13,"nearbyStations":[{"id":387,"distance":0.29330374881973},{"id":386,"distance":0.43491028890725},{"id":377,"distance":0.69979592675989},{"id":412,"distance":0.86057507844616},{"id":295,"distance":0.90766741429625}]},{"id":418,"status":"Inactive","lastCommunication":1489743732,"latitude":40.70224,"longitude":-73.982578,"label":"Front St & Gold St","stationAddress":"","availableBikes":0,"availableDocks":11,"nearbyStations":[{"id":295,"distance":0.98098574670622},{"id":412,"distance":1.1189198432228},{"id":398,"distance":1.1688606828559},{"id":3078,"distance":1.2867706454974},{"id":302,"distance":1.3072600660707}]},{"id":419,"status":"Inactive","lastCommunication":1489743664,"latitude":40.69580705,"longitude":-73.97355569,"label":"Carlton Ave & Park Ave","stationAddress":"","availableBikes":0,"availableDocks":12,"nearbyStations":[{"id":364,"distance":0.84126673249789},{"id":3049,"distance":0.93467479990222},{"id":409,"distance":0.96535709138558},{"id":365,"distance":1.1320925619253},{"id":3417,"distance":1.1516054140965}]},{"id":420,"status":"Inactive","lastCommunication":1489743696,"latitude":40.68764484,"longitude":-73.96968902,"label":"Clermont Ave & Lafayette Ave","stationAddress":"","availableBikes":0,"availableDocks":18,"nearbyStations":[{"id":3049,"distance":0.39732609285294},{"id":364,"distance":0.50398569526982},{"id":365,"distance":0.57087159592615},{"id":409,"distance":0.72499692622132},{"id":3417,"distance":0.72550740558733}]},{"id":421,"status":"Inactive","lastCommunication":1489743755,"latitude":40.69573398,"longitude":-73.97129668,"label":"Clermont Ave & Park Ave","stationAddress":"","availableBikes":0,"availableDocks":8,"nearbyStations":[{"id":364,"distance":0.74287761481416},{"id":409,"distance":0.85439301047711},{"id":3049,"distance":0.86580069804043},{"id":365,"distance":1.0659071245701},{"id":3078,"distance":1.1109580460211}]},{"id":422,"status":"Inactive","lastCommunication":1489743777,"latitude":40.770513,"longitude":-73.988038,"label":"W 59 St & 10 Ave","stationAddress":"","availableBikes":0,"availableDocks":52,"nearbyStations":[{"id":457,"distance":0.41321172020901},{"id":173,"distance":0.70362135296569},{"id":3160,"distance":0.94893181907468},{"id":153,"distance":1.3182405648964},{"id":3376,"distance":1.4091499496435}]},{"id":423,"status":"Inactive","lastCommunication":1489743707,"latitude":40.76584941,"longitude":-73.98690506,"label":"W 54 St & 9 Ave","stationAddress":"","availableBikes":0,"availableDocks":36,"nearbyStations":[{"id":457,"distance":0.28320798065879},{"id":173,"distance":0.37803663845036},{"id":153,"distance":0.99182110710602},{"id":492,"distance":1.1016777730228},{"id":3160,"distance":1.1382941106392}]},{"id":426,"status":"Inactive","lastCommunication":1489743788,"latitude":40.71754834,"longitude":-74.01322069,"label":"West St & Chambers St","stationAddress":"","availableBikes":0,"availableDocks":11,"nearbyStations":[{"id":377,"distance":0.52032971884726},{"id":387,"distance":0.56055852777767},{"id":386,"distance":0.5972620765626},{"id":3256,"distance":0.70962429104786},{"id":412,"distance":1.0020939134582}]},{"id":427,"status":"Inactive","lastCommunication":1489743822,"latitude":40.701907,"longitude":-74.013942,"label":"Bus Slip & State St","stationAddress":"","availableBikes":0,"availableDocks":35,"nearbyStations":[{"id":387,"distance":0.89365170943982},{"id":398,"distance":1.0184467402078},{"id":386,"distance":1.0867296940353},{"id":295,"distance":1.3842629537898},{"id":412,"distance":1.4107825265916}]},{"id":428,"status":"Active","lastCommunication":1489743877,"latitude":40.72467721,"longitude":-73.98783413,"label":"E 3 St & 1 Ave","stationAddress":"","availableBikes":30,"availableDocks":1,"nearbyStations":[{"id":302,"distance":0.58278275320076},{"id":511,"distance":0.62141505071571},{"id":412,"distance":0.69778694216164},{"id":295,"distance":0.78038606906131},{"id":369,"distance":0.83473662349737}]},{"id":430,"status":"Inactive","lastCommunication":1489743763,"latitude":40.7014851,"longitude":-73.98656928,"label":"York St & Jay St","stationAddress":"","availableBikes":0,"availableDocks":17,"nearbyStations":[{"id":295,"distance":0.93118194552646},{"id":398,"distance":0.9773162581756},{"id":412,"distance":1.0682830500502},{"id":387,"distance":1.2233979439823},{"id":386,"distance":1.2442503983596}]},{"id":432,"status":"Inactive","lastCommunication":1489743729,"latitude":40.72621788,"longitude":-73.98379855,"label":"E 7 St & Avenue A","stationAddress":"","availableBikes":0,"availableDocks":0,"nearbyStations":[{"id":428,"distance":0.23662390937711},{"id":511,"distance":0.38615387889073},{"id":302,"distance":0.48277655291836},{"id":412,"distance":0.90260997958471},{"id":369,"distance":0.95736500248523}]},{"id":433,"status":"Inactive","lastCommunication":1489743694,"latitude":40.72955361,"longitude":-73.98057249,"label":"E 13 St & Avenue A","stationAddress":"","availableBikes":0,"availableDocks":2,"nearbyStations":[{"id":511,"distance":0.14958211797621},{"id":428,"distance":0.50805717826647},{"id":302,"distance":0.61855092450893},{"id":2012,"distance":0.71135304538093},{"id":369,"distance":1.0476532120006}]},{"id":434,"status":"Inactive","lastCommunication":1489743656,"latitude":40.74317449,"longitude":-74.00366443,"label":"9 Ave & W 18 St","stationAddress":"","availableBikes":0,"availableDocks":12,"nearbyStations":[{"id":116,"distance":0.14902057625289},{"id":225,"distance":0.24367738937253},{"id":369,"distance":0.7761592221885},{"id":492,"distance":0.82461417715696},{"id":3256,"distance":1.1405526426642}]},{"id":435,"status":"Inactive","lastCommunication":1489743797,"latitude":40.74173969,"longitude":-73.99415556,"label":"W 21 St & 6 Ave","stationAddress":"","availableBikes":0,"availableDocks":43,"nearbyStations":[{"id":116,"distance":0.38437427830978},{"id":492,"distance":0.60846933570543},{"id":225,"distance":0.72651332721885},{"id":369,"distance":0.73009565516025},{"id":2012,"distance":0.92204234949922}]},{"id":436,"status":"Inactive","lastCommunication":1489743678,"latitude":40.68216564,"longitude":-73.95399026,"label":"Hancock St & Bedford Ave","stationAddress":"","availableBikes":0,"availableDocks":22,"nearbyStations":[{"id":365,"distance":0.39134627309762},{"id":3049,"distance":0.50993475207025},{"id":364,"distance":0.57487474291139},{"id":409,"distance":0.60000217497891},{"id":3042,"distance":1.2769062484048}]},{"id":437,"status":"Inactive","lastCommunication":1489743812,"latitude":40.6809833854,"longitude":-73.9500479759,"label":"Macon St & Nostrand Ave","stationAddress":"","availableBikes":0,"availableDocks":15,"nearbyStations":[{"id":365,"distance":0.60408708909778},{"id":3049,"distance":0.73207546944102},{"id":409,"distance":0.74696379759963},{"id":364,"distance":0.76960035650606},{"id":3042,"distance":1.0616988282167}]},{"id":438,"status":"Inactive","lastCommunication":1489743778,"latitude":40.72779126,"longitude":-73.98564945,"label":"St Marks Pl & 1 Ave","stationAddress":"","availableBikes":0,"availableDocks":3,"nearbyStations":[{"id":428,"distance":0.24369429097662},{"id":511,"distance":0.42937918970964},{"id":302,"distance":0.6283412258384},{"id":369,"distance":0.8247022416351},{"id":2012,"distance":0.9288805346286}]},{"id":439,"status":"Inactive","lastCommunication":1489743727,"latitude":40.7262807,"longitude":-73.98978041,"label":"E 4 St & 2 Ave","stationAddress":"","availableBikes":0,"availableDocks":6,"nearbyStations":[{"id":428,"distance":0.15054297394773},{"id":511,"distance":0.66678576974676},{"id":369,"distance":0.68626612630865},{"id":302,"distance":0.72589842664953},{"id":412,"distance":0.75963539861743}]},{"id":440,"status":"Inactive","lastCommunication":1489743750,"latitude":40.75255434,"longitude":-73.97282625,"label":"E 45 St & 3 Ave","stationAddress":"","availableBikes":0,"availableDocks":30,"nearbyStations":[{"id":153,"distance":0.46220227138111},{"id":173,"distance":0.83101059159651},{"id":2012,"distance":0.92947329199266},{"id":492,"distance":0.96154412621962},{"id":3376,"distance":1.0072664421749}]},{"id":441,"status":"Inactive","lastCommunication":1489743888,"latitude":40.756014,"longitude":-73.967416,"label":"E 52 St & 2 Ave","stationAddress":"","availableBikes":0,"availableDocks":33,"nearbyStations":[{"id":3376,"distance":0.66006887465413},{"id":153,"distance":0.79264134668764},{"id":173,"distance":0.95193562734378},{"id":457,"distance":1.0628704575747},{"id":3125,"distance":1.1106438210218}]},{"id":442,"status":"Inactive","lastCommunication":1489743755,"latitude":40.746647,"longitude":-73.993915,"label":"W 27 St & 7 Ave","stationAddress":"","availableBikes":0,"availableDocks":50,"nearbyStations":[{"id":492,"distance":0.29098538114709},{"id":116,"distance":0.52042913070973},{"id":153,"distance":0.7439077330174},{"id":225,"distance":0.80702738551159},{"id":2012,"distance":1.0246407908879}]},{"id":443,"status":"Inactive","lastCommunication":1489743697,"latitude":40.70853074,"longitude":-73.96408963,"label":"Bedford Ave & S 9 St","stationAddress":"","availableBikes":0,"availableDocks":18,"nearbyStations":[{"id":3078,"distance":0.22906474333904},{"id":3087,"distance":0.72686030812071},{"id":3072,"distance":0.94278436699563},{"id":302,"distance":1.1169681721223},{"id":3094,"distance":1.164211521731}]},{"id":444,"status":"Inactive","lastCommunication":1489743680,"latitude":40.7423543,"longitude":-73.98915076,"label":"Broadway & W 24 St","stationAddress":"","availableBikes":0,"availableDocks":52,"nearbyStations":[{"id":492,"distance":0.55006612904287},{"id":116,"distance":0.64761021050536},{"id":2012,"distance":0.67682868084125},{"id":153,"distance":0.77773459937128},{"id":369,"distance":0.90931186063278}]},{"id":445,"status":"Inactive","lastCommunication":1489743657,"latitude":40.72740794,"longitude":-73.98142006,"label":"E 10 St & Avenue A","stationAddress":"","availableBikes":0,"availableDocks":0,"nearbyStations":[{"id":511,"distance":0.23695514561745},{"id":428,"distance":0.38524309211448},{"id":302,"distance":0.48996054806434},{"id":2012,"distance":0.8661075009077},{"id":369,"distance":1.0416855127776}]},{"id":446,"status":"Inactive","lastCommunication":1489743675,"latitude":40.74487634,"longitude":-73.99529885,"label":"W 24 St & 7 Ave","stationAddress":"","availableBikes":0,"availableDocks":17,"nearbyStations":[{"id":116,"distance":0.38883805417016},{"id":492,"distance":0.43312340331942},{"id":225,"distance":0.69646610256373},{"id":153,"distance":0.87082761627052},{"id":369,"distance":0.91093537765711}]},{"id":447,"status":"Inactive","lastCommunication":1489743666,"latitude":40.76370739,"longitude":-73.9851615,"label":"8 Ave & W 52 St","stationAddress":"","availableBikes":0,"availableDocks":26,"nearbyStations":[{"id":173,"distance":0.21157911447038},{"id":457,"distance":0.28851818157925},{"id":153,"distance":0.82557581967299},{"id":492,"distance":0.98096570763574},{"id":3376,"distance":1.2026315879401}]},{"id":448,"status":"Inactive","lastCommunication":1489743790,"latitude":40.75660359,"longitude":-73.9979009,"label":"W 37 St & 10 Ave","stationAddress":"","availableBikes":0,"availableDocks":11,"nearbyStations":[{"id":492,"distance":0.57348897485695},{"id":173,"distance":0.75459481351816},{"id":153,"distance":0.90751028658142},{"id":116,"distance":1.041702674878},{"id":457,"distance":1.1094773110991}]},{"id":449,"status":"Inactive","lastCommunication":1489743720,"latitude":40.76461837,"longitude":-73.98789473,"label":"W 52 St & 9 Ave","stationAddress":"","availableBikes":0,"availableDocks":28,"nearbyStations":[{"id":173,"distance":0.32402574343617},{"id":457,"distance":0.36242768527348},{"id":153,"distance":0.92744232940738},{"id":492,"distance":1.0088718883824},{"id":3160,"distance":1.2374020383245}]},{"id":450,"status":"Inactive","lastCommunication":1489743768,"latitude":40.76227205,"longitude":-73.98788205,"label":"W 49 St & 8 Ave","stationAddress":"","availableBikes":0,"availableDocks":52,"nearbyStations":[{"id":173,"distance":0.20707326618574},{"id":457,"distance":0.45773653393146},{"id":153,"distance":0.77761536472885},{"id":492,"distance":0.84927972574132},{"id":3376,"distance":1.3535913552196}]},{"id":453,"status":"Inactive","lastCommunication":1489743806,"latitude":40.74475148,"longitude":-73.99915362,"label":"W 22 St & 8 Ave","stationAddress":"","availableBikes":0,"availableDocks":1,"nearbyStations":[{"id":116,"distance":0.23942823031575},{"id":225,"distance":0.50336511151214},{"id":492,"distance":0.57185394105632},{"id":369,"distance":0.86638319570337},{"id":153,"distance":1.0470994313541}]},{"id":454,"status":"Inactive","lastCommunication":1489743781,"latitude":40.75455731,"longitude":-73.96592976,"label":"E 51 St & 1 Ave","stationAddress":"","availableBikes":0,"availableDocks":32,"nearbyStations":[{"id":3376,"distance":0.72845757987749},{"id":153,"distance":0.83981393330989},{"id":3125,"distance":0.99087888194082},{"id":173,"distance":1.0614460579805},{"id":457,"distance":1.1892432502137}]},{"id":455,"status":"Inactive","lastCommunication":1489743790,"latitude":40.75001986,"longitude":-73.96905301,"label":"1 Ave & E 44 St","stationAddress":"","availableBikes":0,"availableDocks":35,"nearbyStations":[{"id":153,"distance":0.67342356378357},{"id":2012,"distance":0.83585199304125},{"id":3125,"distance":1.0294459769001},{"id":3376,"distance":1.0767585509281},{"id":173,"distance":1.0949506229553}]},{"id":456,"status":"Inactive","lastCommunication":1489743743,"latitude":40.7597108,"longitude":-73.97402311,"label":"E 53 St & Madison Ave","stationAddress":"","availableBikes":0,"availableDocks":32,"nearbyStations":[{"id":173,"distance":0.553857801605},{"id":457,"distance":0.64153862210452},{"id":153,"distance":0.66176378881454},{"id":3376,"distance":0.70800933469201},{"id":492,"distance":1.1023066316374}]},{"id":457,"status":"Active","lastCommunication":1489743882,"latitude":40.76695317,"longitude":-73.98169333,"label":"Broadway & W 58 St","stationAddress":"","availableBikes":14,"availableDocks":24,"nearbyStations":[{"id":173,"distance":0.45791911353523},{"id":3160,"distance":0.92848907908769},{"id":153,"distance":1.0289276143093},{"id":3376,"distance":1.0307014415658},{"id":492,"distance":1.2545161884619}]},{"id":458,"status":"Inactive","lastCommunication":1489743678,"latitude":40.751396,"longitude":-74.005226,"label":"11 Ave & W 27 St","stationAddress":"","availableBikes":0,"availableDocks":31,"nearbyStations":[{"id":225,"distance":0.66890600359043},{"id":116,"distance":0.69278064186465},{"id":492,"distance":0.75283365131044},{"id":153,"distance":1.2358540226493},{"id":173,"distance":1.2591895313159}]},{"id":459,"status":"Inactive","lastCommunication":1489743779,"latitude":40.746745,"longitude":-74.007756,"label":"W 20 St & 11 Ave","stationAddress":"","availableBikes":0,"availableDocks":38,"nearbyStations":[{"id":225,"distance":0.33153830237219},{"id":116,"distance":0.47458524348591},{"id":492,"distance":0.91252862541538},{"id":369,"distance":1.076203500415},{"id":3256,"distance":1.3279858985678}]},{"id":460,"status":"Inactive","lastCommunication":1489743697,"latitude":40.71285887,"longitude":-73.96590294,"label":"S 4 St & Wythe Ave","stationAddress":"","availableBikes":0,"availableDocks":18,"nearbyStations":[{"id":3078,"distance":0.40425783275644},{"id":3087,"distance":0.71558924340273},{"id":302,"distance":0.8367213039123},{"id":3109,"distance":1.0438984451439},{"id":3072,"distance":1.1288364623784}]},{"id":461,"status":"Inactive","lastCommunication":1489743797,"latitude":40.73587678,"longitude":-73.98205027,"label":"E 20 St & 2 Ave","stationAddress":"","availableBikes":0,"availableDocks":27,"nearbyStations":[{"id":2012,"distance":0.36902114949384},{"id":511,"distance":0.50239653087432},{"id":428,"distance":0.83101333730567},{"id":369,"distance":0.98617206167758},{"id":302,"distance":1.0619395541087}]},{"id":462,"status":"Inactive","lastCommunication":1489743808,"latitude":40.74691959,"longitude":-74.00451887,"label":"W 22 St & 10 Ave","stationAddress":"","availableBikes":0,"availableDocks":16,"nearbyStations":[{"id":116,"distance":0.38901528846217},{"id":225,"distance":0.38940603180185},{"id":492,"distance":0.74653485634793},{"id":369,"distance":1.0384171661917},{"id":153,"distance":1.2496119419165}]},{"id":465,"status":"Inactive","lastCommunication":1489743812,"latitude":40.75513557,"longitude":-73.98658032,"label":"Broadway & W 41 St","stationAddress":"","availableBikes":0,"availableDocks":36,"nearbyStations":[{"id":153,"distance":0.3349179608207},{"id":173,"distance":0.39810872274577},{"id":492,"distance":0.41008023359411},{"id":457,"distance":0.85568786028804},{"id":2012,"distance":1.1988536121504}]},{"id":466,"status":"Inactive","lastCommunication":1489743776,"latitude":40.74395411,"longitude":-73.99144871,"label":"W 25 St & 6 Ave","stationAddress":"","availableBikes":0,"availableDocks":29,"nearbyStations":[{"id":492,"distance":0.4324230443352},{"id":116,"distance":0.54717199287673},{"id":153,"distance":0.76022275659887},{"id":2012,"distance":0.82747957468534},{"id":225,"distance":0.87902268077448}]},{"id":467,"status":"Inactive","lastCommunication":1489743701,"latitude":40.68312489,"longitude":-73.97895137,"label":"Dean St & 4 Ave","stationAddress":"","availableBikes":0,"availableDocks":18,"nearbyStations":[{"id":3417,"distance":0.24607998348498},{"id":3339,"distance":0.4563644848891},{"id":3049,"distance":0.84249540145675},{"id":365,"distance":0.91869272249289},{"id":364,"distance":1.0613164038475}]},{"id":468,"status":"Inactive","lastCommunication":1489743814,"latitude":40.7652654,"longitude":-73.98192338,"label":"Broadway & W 55 St","stationAddress":"","availableBikes":0,"availableDocks":44,"nearbyStations":[{"id":457,"distance":0.1172406159228},{"id":173,"distance":0.34469696328871},{"id":153,"distance":0.91242894824095},{"id":3376,"distance":1.0318144292205},{"id":3160,"distance":1.038983300266}]},{"id":469,"status":"Inactive","lastCommunication":1489743741,"latitude":40.76344058,"longitude":-73.98268129,"label":"Broadway & W 53 St","stationAddress":"","availableBikes":0,"availableDocks":41,"nearbyStations":[{"id":173,"distance":0.21361937825051},{"id":457,"distance":0.24815751698451},{"id":153,"distance":0.78812554385653},{"id":492,"distance":1.0116686253276},{"id":3376,"distance":1.07443620262}]},{"id":470,"status":"Inactive","lastCommunication":1489743776,"latitude":40.74345335,"longitude":-74.00004031,"label":"W 20 St & 8 Ave","stationAddress":"","availableBikes":0,"availableDocks":1,"nearbyStations":[{"id":116,"distance":0.13875092661019},{"id":225,"distance":0.4309631294943},{"id":492,"distance":0.66687248586342},{"id":369,"distance":0.77482164581072},{"id":153,"distance":1.1324321243804}]},{"id":471,"status":"Inactive","lastCommunication":1489743796,"latitude":40.71286844,"longitude":-73.95698119,"label":"Grand St & Havemeyer St","stationAddress":"","availableBikes":0,"availableDocks":18,"nearbyStations":[{"id":3087,"distance":0.25812050594681},{"id":3078,"distance":0.29062091282228},{"id":3094,"distance":0.69557036195014},{"id":3072,"distance":0.73539529811573},{"id":3109,"distance":0.91239924303312}]},{"id":472,"status":"Inactive","lastCommunication":1489743768,"latitude":40.7457121,"longitude":-73.98194829,"label":"E 32 St & Park Ave","stationAddress":"","availableBikes":0,"availableDocks":39,"nearbyStations":[{"id":153,"distance":0.4390954305459},{"id":2012,"distance":0.509899803831},{"id":492,"distance":0.56326162704787},{"id":173,"distance":1.0432425866748},{"id":116,"distance":1.0589373506944}]},{"id":473,"status":"Inactive","lastCommunication":1489743704,"latitude":40.72110063,"longitude":-73.9919254,"label":"Rivington St & Chrystie St","stationAddress":"","availableBikes":0,"availableDocks":12,"nearbyStations":[{"id":428,"distance":0.32707366175037},{"id":412,"distance":0.3845132468088},{"id":295,"distance":0.4889205540935},{"id":386,"distance":0.69173371750993},{"id":377,"distance":0.7253971322139}]},{"id":474,"status":"Inactive","lastCommunication":1489743784,"latitude":40.7451677,"longitude":-73.98683077,"label":"5 Ave & E 29 St","stationAddress":"","availableBikes":0,"availableDocks":33,"nearbyStations":[{"id":492,"distance":0.40862285067037},{"id":153,"distance":0.54864040356156},{"id":2012,"distance":0.65710959202033},{"id":116,"distance":0.802785890849},{"id":173,"distance":1.0788472726417}]},{"id":475,"status":"Inactive","lastCommunication":1487684612,"latitude":40.73524276,"longitude":-73.98758561,"label":"E 16 St & Irving Pl","stationAddress":"","availableBikes":0,"availableDocks":0,"nearbyStations":[{"id":2012,"distance":0.63469029136363},{"id":511,"distance":0.65599448430901},{"id":369,"distance":0.69546642935298},{"id":428,"distance":0.73016995604211},{"id":116,"distance":0.85690832711307}]},{"id":476,"status":"Inactive","lastCommunication":1489743656,"latitude":40.74394314,"longitude":-73.97966069,"label":"E 31 St & 3 Ave","stationAddress":"","availableBikes":0,"availableDocks":28,"nearbyStations":[{"id":2012,"distance":0.34487467631288},{"id":153,"distance":0.57043039032497},{"id":492,"distance":0.7314215600926},{"id":511,"distance":1.0109011659885},{"id":116,"distance":1.1529537259401}]},{"id":477,"status":"Inactive","lastCommunication":1489743796,"latitude":40.75640548,"longitude":-73.9900262,"label":"W 41 St & 8 Ave","stationAddress":"","availableBikes":0,"availableDocks":6,"nearbyStations":[{"id":173,"distance":0.41255814421478},{"id":492,"distance":0.43139385315511},{"id":153,"distance":0.53206451169247},{"id":457,"distance":0.84933785432607},{"id":116,"distance":1.1757617140976}]},{"id":478,"status":"Inactive","lastCommunication":1489743785,"latitude":40.76030096,"longitude":-73.99884222,"label":"11 Ave & W 41 St","stationAddress":"","availableBikes":0,"availableDocks":4,"nearbyStations":[{"id":173,"distance":0.74967538619987},{"id":492,"distance":0.81155193572817},{"id":457,"distance":1.0083493608537},{"id":153,"distance":1.0655860415761},{"id":116,"distance":1.2875516982614}]},{"id":479,"status":"Inactive","lastCommunication":1489743806,"latitude":40.76019252,"longitude":-73.9912551,"label":"9 Ave & W 45 St","stationAddress":"","availableBikes":0,"availableDocks":25,"nearbyStations":[{"id":173,"distance":0.35374708240029},{"id":457,"distance":0.68457404391736},{"id":492,"distance":0.69067101145672},{"id":153,"distance":0.75450008680205},{"id":116,"distance":1.3808652877745}]},{"id":480,"status":"Inactive","lastCommunication":1489743772,"latitude":40.76669671,"longitude":-73.99061728,"label":"W 53 St & 10 Ave","stationAddress":"","availableBikes":0,"availableDocks":13,"nearbyStations":[{"id":457,"distance":0.46735016018074},{"id":173,"distance":0.52367422974687},{"id":153,"distance":1.1151991763514},{"id":492,"distance":1.1400044213307},{"id":3160,"distance":1.2240188439657}]},{"id":481,"status":"Inactive","lastCommunication":1489743743,"latitude":40.71260486,"longitude":-73.96264403,"label":"S 3 St & Bedford Ave","stationAddress":"","availableBikes":0,"availableDocks":19,"nearbyStations":[{"id":3078,"distance":0.27459390811115},{"id":3087,"distance":0.54970672953363},{"id":3072,"distance":0.96889623378249},{"id":3094,"distance":0.97931111014428},{"id":302,"distance":0.98179168745909}]},{"id":482,"status":"Inactive","lastCommunication":1489743793,"latitude":40.73935542,"longitude":-73.99931783,"label":"W 15 St & 7 Ave","stationAddress":"","availableBikes":0,"availableDocks":8,"nearbyStations":[{"id":116,"distance":0.20247626813278},{"id":225,"distance":0.49012069623044},{"id":369,"distance":0.49406563013114},{"id":492,"distance":0.86848669502835},{"id":3256,"distance":1.0199792729654}]},{"id":483,"status":"Inactive","lastCommunication":1489743702,"latitude":40.73223272,"longitude":-73.98889957,"label":"E 12 St & 3 Ave","stationAddress":"","availableBikes":0,"availableDocks":21,"nearbyStations":[{"id":428,"distance":0.52503993853197},{"id":369,"distance":0.59503747091576},{"id":511,"distance":0.61730683053935},{"id":2012,"distance":0.80577632863676},{"id":116,"distance":0.93267142136488}]},{"id":484,"status":"Inactive","lastCommunication":1489743696,"latitude":40.75500254,"longitude":-73.98014437,"label":"W 44 St & 5 Ave","stationAddress":"","availableBikes":0,"availableDocks":44,"nearbyStations":[{"id":153,"distance":0.21758171605149},{"id":173,"distance":0.45464323490384},{"id":492,"distance":0.65490659601856},{"id":457,"distance":0.82972954196366},{"id":2012,"distance":1.0891006715973}]},{"id":485,"status":"Inactive","lastCommunication":1489743751,"latitude":40.75038009,"longitude":-73.98338988,"label":"W 37 St & 5 Ave","stationAddress":"","availableBikes":0,"availableDocks":38,"nearbyStations":[{"id":153,"distance":0.14823679268702},{"id":492,"distance":0.39493342291012},{"id":173,"distance":0.71440980552834},{"id":2012,"distance":0.83048663191713},{"id":116,"distance":1.1189254125687}]},