{"ok":true,"meta":[],"results":[{"id":72,"status":"Inactive","lastCommunication":1489751880,"latitude":40.76727216,"longitude":-73.99392888,"label":"W 52 St & 11 Ave","stationAddress":"","availableBikes":0,"availableDocks":34,"nearbyStations":[{"id":495,"distance":0.3196273377671},{"id":450,"distance":0.4685209415652},{"id":478,"distance":0.54603037434105},{"id":3236,"distance":0.57267551213824},{"id":2021,"distance":0.6180548927275}]},{"id":79,"status":"Active","lastCommunication":1489751974,"latitude":40.71911552,"longitude":-74.00666661,"label":"Franklin St & W Broadway","stationAddress":"","availableBikes":3,"availableDocks":30,"nearbyStations":[{"id":3436,"distance":0.23421245681907},{"id":377,"distance":0.23549598724419},{"id":152,"distance":0.32823194708081},{"id":426,"distance":0.35991925192435},{"id":268,"distance":0.36309598200512}]},{"id":82,"status":"Inactive","lastCommunication":1489751883,"latitude":40.71117416,"longitude":-74.00016545,"label":"St James Pl & Pearl St","stationAddress":"","availableBikes":0,"availableDocks":23,"nearbyStations":[{"id":308,"distance":0.15756584934213},{"id":387,"distance":0.25636076076019},{"id":296,"distance":0.26157160957123},{"id":386,"distance":0.28465583111385},{"id":408,"distance":0.32396949240445}]},{"id":83,"status":"Active","lastCommunication":1489751821,"latitude":40.68382604,"longitude":-73.97632328,"label":"Atlantic Ave & Fort Greene Pl","stationAddress":"","availableBikes":24,"availableDocks":37,"nearbyStations":[{"id":467,"distance":0.14598112188314},{"id":353,"distance":0.15113153503399},{"id":274,"distance":0.21451690240628},{"id":3417,"distance":0.31595374915437},{"id":3413,"distance":0.336376471288}]},{"id":116,"status":"Active","lastCommunication":1489751947,"latitude":40.74177603,"longitude":-74.00149746,"label":"W 17 St & 8 Ave","stationAddress":"","availableBikes":4,"availableDocks":33,"nearbyStations":[{"id":225,"distance":0.34221495840785},{"id":254,"distance":0.48185814573623},{"id":466,"distance":0.54717199287673},{"id":402,"distance":0.63321544909029},{"id":444,"distance":0.64761021050536}]},{"id":119,"status":"Inactive","lastCommunication":1489751764,"latitude":40.69608941,"longitude":-73.97803415,"label":"Park Ave & St Edwards St","stationAddress":"","availableBikes":0,"availableDocks":8,"nearbyStations":[{"id":245,"distance":0.20166141956769},{"id":144,"distance":0.21168946422944},{"id":261,"distance":0.30717918407365},{"id":239,"distance":0.33241265657568},{"id":262,"distance":0.37339306740461}]},{"id":120,"status":"Inactive","lastCommunication":1489751870,"latitude":40.68676793,"longitude":-73.95928168,"label":"Lexington Ave & Classon Ave","stationAddress":"","availableBikes":0,"availableDocks":11,"nearbyStations":[{"id":289,"distance":0.15397856356308},{"id":364,"distance":0.16246560107512},{"id":3049,"distance":0.23621179713434},{"id":409,"distance":0.30698866592762},{"id":344,"distance":0.3079117625461}]},{"id":127,"status":"Inactive","lastCommunication":1489751946,"latitude":40.73172428,"longitude":-74.00674436,"label":"Barrow St & Hudson St","stationAddress":"","availableBikes":0,"availableDocks":18,"nearbyStations":[{"id":369,"distance":0.34119005277735},{"id":3256,"distance":0.3654826084529},{"id":254,"distance":0.52086271477479},{"id":377,"distance":0.64414861445511},{"id":335,"distance":0.69027919362099}]},{"id":128,"status":"Inactive","lastCommunication":1489751931,"latitude":40.72710258,"longitude":-74.00297088,"label":"MacDougal St & Prince St","stationAddress":"","availableBikes":0,"availableDocks":19,"nearbyStations":[{"id":377,"distance":0.351825104287},{"id":369,"distance":0.38231128966508},{"id":3256,"distance":0.43796315213495},{"id":151,"distance":0.4572559920474},{"id":335,"distance":0.48609066429456}]},{"id":137,"status":"Inactive","lastCommunication":0,"latitude":40.761628,"longitude":-73.972924,"label":"E 56 St & Madison Ave","stationAddress":"","availableBikes":0,"availableDocks":0,"nearbyStations":[{"id":520,"distance":0.22050837148652},{"id":3223,"distance":0.28810704472412},{"id":522,"distance":0.31273395081662},{"id":2006,"distance":0.34569595399611},{"id":385,"distance":0.4402829652567}]},{"id":143,"status":"Active","lastCommunication":1489751876,"latitude":40.69239502,"longitude":-73.99337909,"label":"Clinton St & Joralemon St","stationAddress":"","availableBikes":6,"availableDocks":18,"nearbyStations":[{"id":232,"distance":0.29981930740735},{"id":310,"distance":0.31021681212551},{"id":398,"distance":0.34955107758503},{"id":3180,"distance":0.48275713216426},{"id":261,"distance":0.53629529079689}]},{"id":144,"status":"Active","lastCommunication":1489751907,"latitude":40.69839895,"longitude":-73.98068914,"label":"Nassau St & Navy St","stationAddress":"","availableBikes":17,"availableDocks":2,"nearbyStations":[{"id":261,"distance":0.29540245285868},{"id":245,"distance":0.40269287868987},{"id":239,"distance":0.44568205798701},{"id":232,"distance":0.52307143044969},{"id":407,"distance":0.58178191883059}]},{"id":146,"status":"Inactive","lastCommunication":1489751930,"latitude":40.71625008,"longitude":-74.0091059,"label":"Hudson St & Reade St","stationAddress":"","availableBikes":0,"availableDocks":34,"nearbyStations":[{"id":152,"distance":0.10434771991772},{"id":309,"distance":0.22263881797804},{"id":426,"distance":0.23342528587725},{"id":79,"distance":0.23563062967156},{"id":387,"distance":0.33850050585924}]},{"id":147,"status":"Inactive","lastCommunication":1487861307,"latitude":40.71542197,"longitude":-74.01121978,"label":"Greenwich St & Warren St","stationAddress":"","availableBikes":0,"availableDocks":0,"nearbyStations":[{"id":309,"distance":0.098735339145773},{"id":152,"distance":0.12030641223045},{"id":426,"distance":0.18046873444958},{"id":79,"distance":0.34928024155404},{"id":3002,"distance":0.35977384867673}]},{"id":150,"status":"Active","lastCommunication":1489751982,"latitude":40.7208736,"longitude":-73.98085795,"label":"E 2 St & Avenue C","stationAddress":"","availableBikes":11,"availableDocks":20,"nearbyStations":[{"id":400,"distance":0.12145667620484},{"id":302,"distance":0.15327521004094},{"id":349,"distance":0.20781807255038},{"id":411,"distance":0.23908794234622},{"id":342,"distance":0.24275947758544}]},{"id":151,"status":"Active","lastCommunication":1489751896,"latitude":40.722103786686,"longitude":-73.997249007225,"label":"Cleveland Pl & Spring St","stationAddress":"","availableBikes":9,"availableDocks":22,"nearbyStations":[{"id":268,"distance":0.24464651115074},{"id":473,"distance":0.28727589757931},{"id":265,"distance":0.30263758728956},{"id":377,"distance":0.44130116188099},{"id":3265,"distance":0.44266194742709}]},{"id":152,"status":"Active","lastCommunication":1489751983,"latitude":40.71473993,"longitude":-74.00910627,"label":"Warren St & Church St","stationAddress":"","availableBikes":1,"availableDocks":28,"nearbyStations":[{"id":309,"distance":0.20522125901603},{"id":387,"distance":0.27342092107336},{"id":426,"distance":0.28998254549103},{"id":79,"distance":0.32823194708081},{"id":386,"distance":0.35441324648156}]},{"id":153,"status":"Active","lastCommunication":1489751919,"latitude":40.752062307,"longitude":-73.9816324043,"label":"E 40 St & 5 Ave","stationAddress":"","availableBikes":2,"availableDocks":52,"nearbyStations":[{"id":517,"distance":0.19766514800511},{"id":519,"distance":0.20594096671882},{"id":533,"distance":0.29931912940711},{"id":362,"distance":0.30985094675815},{"id":267,"distance":0.32400947429552}]},{"id":157,"status":"Inactive","lastCommunication":1489751847,"latitude":40.69089272,"longitude":-73.99612349,"label":"Henry St & Atlantic Ave","stationAddress":"","availableBikes":0,"availableDocks":1,"nearbyStations":[{"id":143,"distance":0.1773398244889},{"id":398,"distance":0.20867711578988},{"id":3311,"distance":0.36589702392996},{"id":310,"distance":0.38326074698193},{"id":232,"distance":0.47051767210839}]},{"id":161,"status":"Inactive","lastCommunication":1489751950,"latitude":40.72917025,"longitude":-73.99810231,"label":"LaGuardia Pl & W 3 St","stationAddress":"","availableBikes":0,"availableDocks":4,"nearbyStations":[{"id":335,"distance":0.21256534464713},{"id":369,"distance":0.24049415385452},{"id":3263,"distance":0.37883094192077},{"id":254,"distance":0.42525895507745},{"id":151,"distance":0.49031582439866}]},{"id":164,"status":"Inactive","lastCommunication":1489751821,"latitude":40.75323098,"longitude":-73.97032517,"label":"E 47 St & 2 Ave","stationAddress":"","availableBikes":0,"availableDocks":43,"nearbyStations":[{"id":228,"distance":0.12480566818152},{"id":359,"distance":0.27616500346178},{"id":522,"distance":0.2857623914888},{"id":385,"distance":0.3972934021043},{"id":519,"distance":0.39757309700012}]},{"id":167,"status":"Active","lastCommunication":1489751765,"latitude":40.7489006,"longitude":-73.97604882,"label":"E 39 St & 3 Ave","stationAddress":"","availableBikes":0,"availableDocks":44,"nearbyStations":[{"id":517,"distance":0.20927022988687},{"id":519,"distance":0.22295325656534},{"id":153,"distance":0.36490082406769},{"id":501,"distance":0.41079308848617},{"id":528,"distance":0.41737793040007}]},{"id":168,"status":"Inactive","lastCommunication":1489751917,"latitude":40.73971301,"longitude":-73.99456405,"label":"W 18 St & 6 Ave","stationAddress":"","availableBikes":0,"availableDocks":38,"nearbyStations":[{"id":402,"distance":0.26603518768488},{"id":466,"distance":0.33537777995317},{"id":444,"distance":0.33708351950147},{"id":254,"distance":0.35270577832103},{"id":382,"distance":0.35681319959191}]},{"id":173,"status":"Active","lastCommunication":1489751804,"latitude":40.760683270966,"longitude":-73.984527289867,"label":"Broadway & W 49 St","stationAddress":"","availableBikes":7,"availableDocks":44,"nearbyStations":[{"id":500,"distance":0.1265684697354},{"id":450,"distance":0.20707326618574},{"id":469,"distance":0.21361937825051},{"id":2021,"distance":0.23368806033359},{"id":465,"distance":0.39810872274577}]},{"id":174,"status":"Active","lastCommunication":1489751845,"latitude":40.7381765,"longitude":-73.97738662,"label":"E 25 St & 1 Ave","stationAddress":"","availableBikes":5,"availableDocks":25,"nearbyStations":[{"id":2012,"distance":0.092771887492447},{"id":536,"distance":0.24943803612563},{"id":528,"distance":0.32745089804091},{"id":325,"distance":0.4073479062283},{"id":501,"distance":0.52803060873228}]},{"id":195,"status":"Active","lastCommunication":1489751774,"latitude":40.70905623,"longitude":-74.01043382,"label":"Liberty St & Broadway","stationAddress":"","availableBikes":1,"availableDocks":44,"nearbyStations":[{"id":376,"distance":0.17091388315725},{"id":3002,"distance":0.32634562109898},{"id":304,"distance":0.3481372610693},{"id":387,"distance":0.39706866088043},{"id":152,"distance":0.39883762994304}]},{"id":212,"status":"Inactive","lastCommunication":1489751963,"latitude":40.74334935,"longitude":-74.00681753,"label":"W 16 St & The High Line","stationAddress":"","availableBikes":0,"availableDocks":26,"nearbyStations":[{"id":225,"distance":0.11558882759232},{"id":116,"distance":0.29898004698653},{"id":254,"distance":0.72138087855222},{"id":466,"distance":0.80565611993326},{"id":369,"distance":0.84074814404831}]},{"id":216,"status":"Active","lastCommunication":1489751943,"latitude":40.70037867,"longitude":-73.99548059,"label":"Columbia Heights & Cranberry St","stationAddress":"","availableBikes":3,"availableDocks":20,"nearbyStations":[{"id":3180,"distance":0.13992130152902},{"id":407,"distance":0.21102491428952},{"id":232,"distance":0.41294603989997},{"id":143,"distance":0.56252942152217},{"id":315,"distance":0.62743970530943}]},{"id":217,"status":"Inactive","lastCommunication":1489751932,"latitude":40.70277159,"longitude":-73.99383605,"label":"Old Fulton St","stationAddress":"","availableBikes":0,"availableDocks":10,"nearbyStations":[{"id":216,"distance":0.18644134903521},{"id":407,"distance":0.20219855551644},{"id":3180,"distance":0.32506084216358},{"id":232,"distance":0.50768077087554},{"id":408,"distance":0.55220744403998}]},{"id":223,"status":"Inactive","lastCommunication":1479818387,"latitude":40.73781509,"longitude":-73.99994661,"label":"W 13 St & 7 Ave","stationAddress":"","availableBikes":0,"availableDocks":3,"nearbyStations":[{"id":254,"distance":0.19991065574152},{"id":116,"distance":0.28548081862047},{"id":369,"distance":0.38550123262552},{"id":382,"distance":0.46120276225095},{"id":225,"distance":0.51067336978043}]},{"id":224,"status":"Inactive","lastCommunication":1489751917,"latitude":40.71146364,"longitude":-74.00552427,"label":"Spruce St & Nassau St","stationAddress":"","availableBikes":0,"availableDocks":28,"nearbyStations":[{"id":387,"distance":0.099977314635144},{"id":376,"distance":0.21557326399315},{"id":386,"distance":0.29274241103823},{"id":152,"distance":0.29401700766019},{"id":195,"distance":0.30626191629066}]},{"id":225,"status":"Active","lastCommunication":1489751887,"latitude":40.74195138,"longitude":-74.00803013,"label":"W 14 St & The High Line","stationAddress":"","availableBikes":20,"availableDocks":16,"nearbyStations":[{"id":116,"distance":0.34221495840785},{"id":254,"distance":0.69657391493266},{"id":369,"distance":0.78454075936449},{"id":466,"distance":0.87902268077448},{"id":382,"distance":0.96927358576101}]},{"id":228,"status":"Active","lastCommunication":1489751992,"latitude":40.7546011026,"longitude":-73.971878855,"label":"E 48 St & 3 Ave","stationAddress":"","availableBikes":3,"availableDocks":52,"nearbyStations":[{"id":359,"distance":0.1663352969815},{"id":522,"distance":0.17626502514101},{"id":3223,"distance":0.34746768980512},{"id":519,"distance":0.35856211552816},{"id":517,"distance":0.37842960315721}]},{"id":229,"status":"Inactive","lastCommunication":1489751994,"latitude":40.72743423,"longitude":-73.99379025,"label":"Great Jones St","stationAddress":"","availableBikes":0,"availableDocks":19,"nearbyStations":[{"id":335,"distance":0.11170622238965},{"id":3263,"distance":0.19728715808962},{"id":3265,"distance":0.30191314516097},{"id":428,"distance":0.36546874844961},{"id":265,"distance":0.37532940596133}]},{"id":232,"status":"Active","lastCommunication":1489751956,"latitude":40.69597683,"longitude":-73.99014892,"label":"Cadman Plaza E & Tillary St","stationAddress":"","availableBikes":14,"availableDocks":9,"nearbyStations":[{"id":143,"distance":0.29981930740735},{"id":407,"distance":0.3178384309765},{"id":261,"distance":0.35217495689438},{"id":216,"distance":0.41294603989997},{"id":3180,"distance":0.41338230275432}]},{"id":236,"status":"Inactive","lastCommunication":1489751932,"latitude":40.7284186,"longitude":-73.98713956,"label":"St Marks Pl & 2 Ave","stationAddress":"","availableBikes":0,"availableDocks":2,"nearbyStations":[{"id":237,"distance":0.14362001001787},{"id":326,"distance":0.16913606546036},{"id":3263,"distance":0.20324767061633},{"id":428,"distance":0.26106693363442},{"id":3265,"distance":0.29243549179699}]},{"id":237,"status":"Active","lastCommunication":1489751900,"latitude":40.73047309,"longitude":-73.98672378,"label":"E 11 St & 2 Ave","stationAddress":"","availableBikes":30,"availableDocks":8,"nearbyStations":[{"id":326,"distance":0.14393221973161},{"id":3263,"distance":0.23321680385196},{"id":433,"distance":0.3282979983736},{"id":445,"distance":0.34926072009547},{"id":285,"distance":0.35134219080877}]},{"id":238,"status":"Inactive","lastCommunication":1489751915,"latitude":40.7361967,"longitude":-74.00859207,"label":"Bank St & Washington St","stationAddress":"","availableBikes":0,"availableDocks":3,"nearbyStations":[{"id":225,"distance":0.39872136927461},{"id":369,"distance":0.51462483563489},{"id":116,"distance":0.53533961867568},{"id":254,"distance":0.55761898106696},{"id":3256,"distance":0.60298200820791}]},{"id":239,"status":"Active","lastCommunication":1489751920,"latitude":40.69196566,"longitude":-73.9813018,"label":"Willoughby St & Fleet St","stationAddress":"","availableBikes":0,"availableDocks":31,"nearbyStations":[{"id":261,"distance":0.22757927840681},{"id":245,"distance":0.24084975682262},{"id":243,"distance":0.2772877478523},{"id":241,"distance":0.3654886936955},{"id":262,"distance":0.39690653992347}]},{"id":241,"status":"Active","lastCommunication":1489751989,"latitude":40.68981035,"longitude":-73.97493121,"label":"DeKalb Ave & S Portland Ave","stationAddress":"","availableBikes":20,"availableDocks":3,"nearbyStations":[{"id":262,"distance":0.15009117657808},{"id":274,"distance":0.2198602197974},{"id":243,"distance":0.25761260175907},{"id":245,"distance":0.26333349564432},{"id":353,"distance":0.3067499037363}]},{"id":242,"status":"Inactive","lastCommunication":1489751837,"latitude":40.697787,"longitude":-73.973736,"label":"Carlton Ave & Flushing Ave","stationAddress":"","availableBikes":0,"availableDocks":15,"nearbyStations":[{"id":245,"distance":0.35685489765474},{"id":144,"distance":0.3666984901311},{"id":262,"distance":0.41491039224116},{"id":2005,"distance":0.53933883954195},{"id":241,"distance":0.55471276724219}]},{"id":243,"status":"Active","lastCommunication":1489751862,"latitude":40.688226,"longitude":-73.979382,"label":"Fulton St & Rockwell Pl","stationAddress":"","availableBikes":20,"availableDocks":8,"nearbyStations":[{"id":274,"distance":0.16784859828323},{"id":241,"distance":0.25761260175907},{"id":3412,"distance":0.27411553515032},{"id":239,"distance":0.2772877478523},{"id":353,"distance":0.32976220774435}]},{"id":244,"status":"Active","lastCommunication":1489751876,"latitude":40.69196035,"longitude":-73.96536851,"label":"Willoughby Ave & Hall St","stationAddress":"","availableBikes":11,"availableDocks":20,"nearbyStations":[{"id":354,"distance":0.20068080858169},{"id":399,"distance":0.24014794984335},{"id":364,"distance":0.3375734338013},{"id":275,"distance":0.37750665029379},{"id":262,"distance":0.43823969083057}]},{"id":245,"status":"Active","lastCommunication":1489751947,"latitude":40.69327018,"longitude":-73.97703874,"label":"Myrtle Ave & St Edwards St","stationAddress":"","availableBikes":4,"availableDocks":19,"nearbyStations":[{"id":262,"distance":0.20154710298505},{"id":239,"distance":0.24084975682262},{"id":241,"distance":0.26333349564432},{"id":261,"distance":0.3598442010132},{"id":243,"distance":0.36953063950324}]},{"id":247,"status":"Inactive","lastCommunication":1489751912,"latitude":40.73535398,"longitude":-74.00483091,"label":"Perry St & Bleecker St","stationAddress":"","availableBikes":0,"availableDocks":8,"nearbyStations":[{"id":369,"distance":0.32162197077275},{"id":254,"distance":0.35743554983959},{"id":116,"distance":0.47683384259408},{"id":225,"distance":0.4856612187022},{"id":3256,"distance":0.62710459208022}]},{"id":248,"status":"Inactive","lastCommunication":1489751899,"latitude":40.72185379,"longitude":-74.00771779,"label":"Laight St & Hudson St","stationAddress":"","availableBikes":0,"availableDocks":21,"nearbyStations":[{"id":377,"distance":0.11485674156003},{"id":3436,"distance":0.12835366786855},{"id":79,"distance":0.19705340355185},{"id":426,"distance":0.4141918463476},{"id":3256,"distance":0.44617728277383}]},{"id":249,"status":"Inactive","lastCommunication":1489751973,"latitude":40.71870987,"longitude":-74.0090009,"label":"Harrison St & Hudson St","stationAddress":"","availableBikes":0,"availableDocks":24,"nearbyStations":[{"id":79,"distance":0.12541983799964},{"id":3436,"distance":0.18870071966916},{"id":426,"distance":0.23511720952605},{"id":152,"distance":0.27436876951414},{"id":377,"distance":0.31126992792631}]},{"id":251,"status":"Inactive","lastCommunication":1489751925,"latitude":40.72317958,"longitude":-73.99480012,"label":"Mott St & Prince St","stationAddress":"","availableBikes":0,"availableDocks":15,"nearbyStations":[{"id":151,"distance":0.14822837368317},{"id":265,"distance":0.1845618087371},{"id":473,"distance":0.20808315466654},{"id":3265,"distance":0.29634347545656},{"id":428,"distance":0.37917810619205}]},{"id":252,"status":"Inactive","lastCommunication":1489751936,"latitude":40.73226398,"longitude":-73.99852205,"label":"MacDougal St & Washington Sq","stationAddress":"","availableBikes":0,"availableDocks":13,"nearbyStations":[{"id":369,"distance":0.09121874403421},{"id":254,"distance":0.21318994812116},{"id":335,"distance":0.32337201870481},{"id":382,"distance":0.38767137426402},{"id":285,"distance":0.4368290628657}]},{"id":253,"status":"Inactive","lastCommunication":1489751788,"latitude":40.73543934,"longitude":-73.99453948,"label":"W 13 St & 5 Ave","stationAddress":"","availableBikes":0,"availableDocks":51,"nearbyStations":[{"id":382,"distance":0.13733659666549},{"id":254,"distance":0.18157743323175},{"id":285,"distance":0.20822471322421},{"id":369,"distance":0.37238304096182},{"id":402,"distance":0.4278145524257}]},{"id":254,"status":"Active","lastCommunication":1489751811,"latitude":40.73532427,"longitude":-73.99800419,"label":"W 11 St & 6 Ave","stationAddress":"","availableBikes":8,"availableDocks":22,"nearbyStations":[{"id":369,"distance":0.24368474889648},{"id":382,"distance":0.31529611142099},{"id":285,"distance":0.38404933217269},{"id":335,"distance":0.48119209088583},{"id":116,"distance":0.48185814573623}]},{"id":257,"status":"Inactive","lastCommunication":1489751915,"latitude":40.71939226,"longitude":-74.00247214,"label":"Lispenard St & Broadway","stationAddress":"","availableBikes":0,"availableDocks":22,"nearbyStations":[{"id":268,"distance":0.14479310506342},{"id":79,"distance":0.22049557128084},{"id":377,"distance":0.26877064182231},{"id":386,"distance":0.30715518202034},{"id":151,"distance":0.33154539147067}]},{"id":258,"status":"Inactive","lastCommunication":1489751958,"latitude":40.68940747,"longitude":-73.96885458,"label":"DeKalb Ave & Vanderbilt Ave","stationAddress":"","availableBikes":0,"availableDocks":19,"nearbyStations":[{"id":399,"distance":0.22307100953332},{"id":244,"distance":0.25391947550591},{"id":275,"distance":0.26235954998114},{"id":262,"distance":0.30359863433765},{"id":241,"distance":0.31959017433971}]},{"id":259,"status":"Active","lastCommunication":1489751990,"latitude":40.70122128,"longitude":-74.01234218,"label":"South St & Whitehall St","stationAddress":"","availableBikes":8,"availableDocks":29,"nearbyStations":[{"id":304,"distance":0.24504084852761},{"id":315,"distance":0.33653961077133},{"id":2008,"distance":0.38654244605795},{"id":195,"distance":0.55052752032964},{"id":376,"distance":0.57741350570963}]},{"id":260,"status":"Inactive","lastCommunication":1489751938,"latitude":40.70365182,"longitude":-74.01167797,"label":"Broad St & Bridge St","stationAddress":"","availableBikes":0,"availableDocks":33,"nearbyStations":[{"id":304,"distance":0.12213434341179},{"id":259,"distance":0.17151071839638},{"id":315,"distance":0.26072723873976},{"id":2008,"distance":0.30202509059873},{"id":195,"distance":0.37907545975529}]},{"id":261,"status":"Active","lastCommunication":1489751921,"latitude":40.69474881,"longitude":-73.98362464,"label":"Johnson St & Gold St","stationAddress":"","availableBikes":10,"availableDocks":17,"nearbyStations":[{"id":239,"distance":0.22757927840681},{"id":144,"distance":0.29540245285868},{"id":232,"distance":0.35217495689438},{"id":245,"distance":0.3598442010132},{"id":310,"distance":0.47592189068616}]},{"id":262,"status":"Active","lastCommunication":1489751759,"latitude":40.6917823,"longitude":-73.9737299,"label":"Washington Park","stationAddress":"","availableBikes":2,"availableDocks":22,"nearbyStations":[{"id":241,"distance":0.15009117657808},{"id":245,"distance":0.20154710298505},{"id":274,"distance":0.3699511578826},{"id":243,"distance":0.38480868218538},{"id":239,"distance":0.39690653992347}]},{"id":264,"status":"Inactive","lastCommunication":1489751963,"latitude":40.70706456,"longitude":-74.00731853,"label":"Maiden Ln & Pearl St","stationAddress":"","availableBikes":0,"availableDocks":17,"nearbyStations":[{"id":376,"distance":0.10769648797763},{"id":195,"distance":0.21346052397741},{"id":315,"distance":0.24472541363156},{"id":304,"distance":0.37022838555654},{"id":387,"distance":0.41660220382464}]},{"id":265,"status":"Active","lastCommunication":1489751980,"latitude":40.72229346,"longitude":-73.99147535,"label":"Stanton St & Chrystie St","stationAddress":"","availableBikes":27,"availableDocks":8,"nearbyStations":[{"id":473,"distance":0.085725124260692},{"id":3265,"distance":0.18952547132144},{"id":428,"distance":0.25196884844764},{"id":151,"distance":0.30263758728956},{"id":412,"distance":0.47018264844776}]},{"id":266,"status":"Active","lastCommunication":1489751974,"latitude":40.72368361,"longitude":-73.97574813,"label":"Avenue D & E 8 St","stationAddress":"","availableBikes":19,"availableDocks":5,"nearbyStations":[{"id":411,"distance":0.10868484272873},{"id":339,"distance":0.16694848461428},{"id":302,"distance":0.22803527582911},{"id":317,"distance":0.32515029674292},{"id":150,"distance":0.33061191340077}]},{"id":267,"status":"Active","lastCommunication":1489751936,"latitude":40.75097711,"longitude":-73.98765428,"label":"Broadway & W 36 St","stationAddress":"","availableBikes":0,"availableDocks":37,"nearbyStations":[{"id":362,"distance":0.052142320969984},{"id":533,"distance":0.14140059535313},{"id":492,"distance":0.17972358151162},{"id":465,"distance":0.29278681754288},{"id":153,"distance":0.32400947429552}]},{"id":268,"status":"Active","lastCommunication":1489751808,"latitude":40.71910537,"longitude":-73.99973337,"label":"Howard St & Centre St","stationAddress":"","availableBikes":10,"availableDocks":15,"nearbyStations":[{"id":151,"distance":0.24464651115074},{"id":386,"distance":0.31815567065288},{"id":79,"distance":0.36309598200512},{"id":412,"distance":0.36733841396488},{"id":296,"distance":0.37140744498983}]},{"id":270,"status":"Inactive","lastCommunication":1489751983,"latitude":40.69308257,"longitude":-73.97178913,"label":"Adelphi St & Myrtle Ave","stationAddress":"","availableBikes":0,"availableDocks":7,"nearbyStations":[{"id":262,"distance":0.13568674119994},{"id":245,"distance":0.27533565200158},{"id":241,"distance":0.27968198782229},{"id":244,"distance":0.34520539441433},{"id":399,"distance":0.48488249426982}]},{"id":274,"status":"Active","lastCommunication":1489751875,"latitude":40.68691865,"longitude":-73.976682,"label":"Lafayette Ave & Fort Greene Pl","stationAddress":"","availableBikes":18,"availableDocks":10,"nearbyStations":[{"id":353,"distance":0.1626686056443},{"id":243,"distance":0.16784859828323},{"id":83,"distance":0.21451690240628},{"id":241,"distance":0.2198602197974},{"id":467,"distance":0.28784782328968}]},{"id":275,"status":"Active","lastCommunication":1489751841,"latitude":40.68650065,"longitude":-73.96563307,"label":"Washington Ave & Greene Ave","stationAddress":"","availableBikes":10,"availableDocks":9,"nearbyStations":[{"id":399,"distance":0.14648770790953},{"id":3049,"distance":0.17606888437084},{"id":397,"distance":0.24817451772956},{"id":364,"distance":0.33139011802973},{"id":365,"distance":0.36723551890849}]},{"id":276,"status":"Inactive","lastCommunication":1489751896,"latitude":40.71748752,"longitude":-74.0104554,"label":"Duane St & Greenwich St","stationAddress":"","availableBikes":0,"availableDocks":24,"nearbyStations":[{"id":426,"distance":0.14488327275341},{"id":152,"distance":0.20257391041406},{"id":309,"distance":0.21904201695563},{"id":79,"distance":0.22809111326673},{"id":3436,"distance":0.26553429274268}]},{"id":278,"status":"Inactive","lastCommunication":1489751890,"latitude":40.69766564,"longitude":-73.98476437,"label":"Concord St & Bridge St","stationAddress":"","availableBikes":0,"availableDocks":15,"nearbyStations":[{"id":261,"distance":0.21020430910779},{"id":144,"distance":0.21941895810424},{"id":232,"distance":0.3052684578753},{"id":407,"distance":0.40041476172368},{"id":239,"distance":0.43362221848313}]},{"id":279,"status":"Inactive","lastCommunication":1489751839,"latitude":40.707873,"longitude":-74.00167,"label":"Peck Slip & Front St","stationAddress":"","availableBikes":0,"availableDocks":31,"nearbyStations":[{"id":376,"distance":0.29534680478038},{"id":387,"distance":0.36935682405034},{"id":308,"distance":0.39593995660468},{"id":315,"distance":0.39818749931913},{"id":408,"distance":0.44842339942903}]},{"id":280,"status":"Inactive","lastCommunication":1489751904,"latitude":40.73331967,"longitude":-73.99510132,"label":"E 10 St & 5 Ave","stationAddress":"","availableBikes":0,"availableDocks":10,"nearbyStations":[{"id":382,"distance":0.19650694890263},{"id":254,"distance":0.20563699122699},{"id":285,"distance":0.24348979412448},{"id":369,"distance":0.28039591810428},{"id":335,"distance":0.30088492567366}]},{"id":281,"status":"Inactive","lastCommunication":1489751922,"latitude":40.7643971,"longitude":-73.97371465,"label":"Grand Army Plaza & Central Park S","stationAddress":"","availableBikes":0,"availableDocks":54,"nearbyStations":[{"id":2006,"distance":0.17267891008215},{"id":520,"distance":0.34148817320535},{"id":457,"distance":0.45336999693219},{"id":3223,"distance":0.45760447077471},{"id":469,"distance":0.47390020541595}]},{"id":282,"status":"Inactive","lastCommunication":1489751955,"latitude":40.707644944176,"longitude":-73.968415260315,"label":"Kent Ave & S 11 St","stationAddress":"","availableBikes":0,"availableDocks":27,"nearbyStations":[{"id":2005,"distance":0.21053546289236},{"id":443,"distance":0.23469333398884},{"id":532,"distance":0.43992498340798},{"id":3078,"distance":0.46364914566618},{"id":3075,"distance":0.54858703607271}]},{"id":284,"status":"Inactive","lastCommunication":1489751774,"latitude":40.7390169121,"longitude":-74.0026376103,"label":"Greenwich Ave & 8 Ave","stationAddress":"","availableBikes":0,"availableDocks":8,"nearbyStations":[{"id":116,"distance":0.19977437482364},{"id":225,"distance":0.34758631645824},{"id":254,"distance":0.35206749372053},{"id":369,"distance":0.48440001935909},{"id":382,"distance":0.62430507196938}]},{"id":285,"status":"Active","lastCommunication":1489751898,"latitude":40.73454567,"longitude":-73.99074142,"label":"Broadway & E 14 St","stationAddress":"","availableBikes":27,"availableDocks":20,"nearbyStations":[{"id":382,"distance":0.071215502287076},{"id":325,"distance":0.33556299921571},{"id":237,"distance":0.35134219080877},{"id":3263,"distance":0.36691078382876},{"id":254,"distance":0.38404933217269}]},{"id":289,"status":"Active","lastCommunication":1489751884,"latitude":40.6845683,"longitude":-73.95881081,"label":"Monroe St & Classon Ave","stationAddress":"","availableBikes":4,"availableDocks":15,"nearbyStations":[{"id":365,"distance":0.21286719524068},{"id":3049,"distance":0.22264217609141},{"id":344,"distance":0.26508341580427},{"id":436,"distance":0.30226323687129},{"id":364,"distance":0.31552206075719}]},{"id":291,"status":"Inactive","lastCommunication":1489751786,"latitude":40.713126,"longitude":-73.984844,"label":"Madison St & Montgomery St","stationAddress":"","availableBikes":0,"availableDocks":9,"nearbyStations":[{"id":340,"distance":0.15582916976086},{"id":350,"distance":0.2054482563912},{"id":356,"distance":0.24404953949332},{"id":332,"distance":0.28807403639234},{"id":349,"distance":0.38019133947032}]},{"id":293,"status":"Inactive","lastCommunication":1489751799,"latitude":40.73028666,"longitude":-73.9907647,"label":"Lafayette St & E 8 St","stationAddress":"","availableBikes":0,"availableDocks":35,"nearbyStations":[{"id":3263,"distance":0.072765023287334},{"id":335,"distance":0.19224842178907},{"id":237,"distance":0.21197981206513},{"id":285,"distance":0.29428983025673},{"id":382,"distance":0.3271443699777}]},{"id":295,"status":"Active","lastCommunication":1489751781,"latitude":40.71406667,"longitude":-73.99293911,"label":"Pike St & E Broadway","stationAddress":"","availableBikes":4,"availableDocks":19,"nearbyStations":[{"id":412,"distance":0.13830545852715},{"id":331,"distance":0.16981130183835},{"id":296,"distance":0.21518258317858},{"id":408,"distance":0.23503853146928},{"id":340,"distance":0.28728106644331}]},{"id":296,"status":"Active","lastCommunication":1489751943,"latitude":40.71413089,"longitude":-73.9970468,"label":"Division St & Bowery","stationAddress":"","availableBikes":4,"availableDocks":31,"nearbyStations":[{"id":308,"distance":0.10568614383942},{"id":412,"distance":0.18817923150514},{"id":295,"distance":0.21518258317858},{"id":408,"distance":0.28209402679273},{"id":386,"distance":0.28316442483564}]},{"id":297,"status":"Inactive","lastCommunication":1489751862,"latitude":40.734232,"longitude":-73.986923,"label":"E 15 St & 3 Ave","stationAddress":"","availableBikes":0,"availableDocks":9,"nearbyStations":[{"id":325,"distance":0.18012218974315},{"id":285,"distance":0.20109698551546},{"id":237,"distance":0.25994098203416},{"id":382,"distance":0.27038648332789},{"id":326,"distance":0.35287218607584}]},{"id":301,"status":"Inactive","lastCommunication":1489751904,"latitude":40.72217444,"longitude":-73.98368779,"label":"E 2 St & Avenue B","stationAddress":"","availableBikes":0,"availableDocks":2,"nearbyStations":[{"id":150,"distance":0.17332267162254},{"id":317,"distance":0.18941128976833},{"id":400,"distance":0.22474644562919},{"id":349,"distance":0.25456640369342},{"id":428,"distance":0.2775830752387}]},{"id":302,"status":"Active","lastCommunication":1489751833,"latitude":40.72082834,"longitude":-73.97793172,"label":"Avenue D & E 3 St","stationAddress":"","availableBikes":16,"availableDocks":7,"nearbyStations":[{"id":411,"distance":0.11967338600139},{"id":150,"distance":0.15327521004094},{"id":341,"distance":0.22486884206569},{"id":266,"distance":0.22803527582911},{"id":400,"distance":0.22880558840427}]},{"id":303,"status":"Inactive","lastCommunication":1489751816,"latitude":40.72362738,"longitude":-73.99949601,"label":"Mercer St & Spring St","stationAddress":"","availableBikes":0,"availableDocks":13,"nearbyStations":[{"id":151,"distance":0.15789000001956},{"id":268,"distance":0.31270711943048},{"id":377,"distance":0.33331359803074},{"id":265,"distance":0.43001366784531},{"id":473,"distance":0.43319643551818}]},{"id":304,"status":"Active","lastCommunication":1489751961,"latitude":40.70463334,"longitude":-74.01361706,"label":"Broadway & Battery Pl","stationAddress":"","availableBikes":2,"availableDocks":32,"nearbyStations":[{"id":2008,"distance":0.18097305642916},{"id":259,"distance":0.24504084852761},{"id":195,"distance":0.3481372610693},{"id":315,"distance":0.36981231143108},{"id":376,"distance":0.4337746532641}]},{"id":305,"status":"Inactive","lastCommunication":1489751774,"latitude":40.76095756,"longitude":-73.96724467,"label":"E 58 St & 3 Ave","stationAddress":"","availableBikes":0,"availableDocks":29,"nearbyStations":[{"id":3223,"distance":0.15427556659935},{"id":385,"distance":0.21574064235998},{"id":522,"distance":0.36511602598698},{"id":3376,"distance":0.36968656326606},{"id":2022,"distance":0.43887892208942}]},{"id":306,"status":"Inactive","lastCommunication":1489751841,"latitude":40.70823502,"longitude":-74.00530063,"label":"Cliff St & Fulton St","stationAddress":"","availableBikes":0,"availableDocks":33,"nearbyStations":[{"id":376,"distance":0.10409822061479},{"id":195,"distance":0.27479107460309},{"id":387,"distance":0.31289056808838},{"id":315,"distance":0.33169062855139},{"id":308,"distance":0.48833085635928}]},{"id":307,"status":"Inactive","lastCommunication":1489751789,"latitude":40.71427487,"longitude":-73.98990025,"label":"Canal St & Rutgers St","stationAddress":"","availableBikes":0,"availableDocks":17,"nearbyStations":[{"id":340,"distance":0.15656816769251},{"id":295,"distance":0.15980642771495},{"id":350,"distance":0.17586163823095},{"id":331,"distance":0.20542996405541},{"id":412,"distance":0.25020742613697}]},{"id":308,"status":"Active","lastCommunication":1489751977,"latitude":40.71307916,"longitude":-73.99851193,"label":"St James Pl & Oliver St","stationAddress":"","availableBikes":10,"availableDocks":16,"nearbyStations":[{"id":296,"distance":0.10568614383942},{"id":386,"distance":0.23869400300799},{"id":408,"distance":0.28526474693012},{"id":412,"distance":0.29358362560687},{"id":295,"distance":0.29974395247333}]},{"id":309,"status":"Active","lastCommunication":1489751962,"latitude":40.7149787,"longitude":-74.013012,"label":"Murray St & West St","stationAddress":"","availableBikes":3,"availableDocks":37,"nearbyStations":[{"id":426,"distance":0.17789199125814},{"id":152,"distance":0.20522125901603},{"id":3002,"distance":0.27934592059502},{"id":195,"distance":0.43093167504816},{"id":79,"distance":0.43834162221729}]},{"id":310,"status":"Active","lastCommunication":1489751880,"latitude":40.68926942,"longitude":-73.98912867,"label":"State St & Smith St","stationAddress":"","availableBikes":31,"availableDocks":5,"nearbyStations":[{"id":143,"distance":0.31021681212551},{"id":3412,"distance":0.4180517824058},{"id":239,"distance":0.45040727141243},{"id":232,"distance":0.4665379853508},{"id":261,"distance":0.47592189068616}]},{"id":311,"status":"Inactive","lastCommunication":1489751930,"latitude":40.7172274,"longitude":-73.98802084,"label":"Norfolk St & Broome St","stationAddress":"","availableBikes":0,"availableDocks":16,"nearbyStations":[{"id":350,"distance":0.12416459975102},{"id":349,"distance":0.26252650169539},{"id":356,"distance":0.29159055879626},{"id":340,"distance":0.3137845551038},{"id":473,"distance":0.33680760058749}]},{"id":312,"status":"Inactive","lastCommunication":1489751880,"latitude":40.722055,"longitude":-73.989111,"label":"Allen St & Stanton St","stationAddress":"","availableBikes":0,"availableDocks":14,"nearbyStations":[{"id":265,"distance":0.12490737294761},{"id":473,"distance":0.16146553956379},{"id":3265,"distance":0.1742002409054},{"id":428,"distance":0.19313272310054},{"id":349,"distance":0.39105337532157}]},{"id":313,"status":"Inactive","lastCommunication":1489751897,"latitude":40.69610226,"longitude":-73.96751037,"label":"Washington Ave & Park Ave","stationAddress":"","availableBikes":0,"availableDocks":9,"nearbyStations":[{"id":244,"distance":0.3074079619417},{"id":354,"distance":0.32483037386674},{"id":262,"distance":0.44189825805724},{"id":245,"distance":0.53617261415451},{"id":399,"distance":0.54364195026763}]},{"id":315,"status":"Active","lastCommunication":1489751869,"latitude":40.70355377,"longitude":-74.00670227,"label":"South St & Gouverneur Ln","stationAddress":"","availableBikes":3,"availableDocks":25,"nearbyStations":[{"id":259,"distance":0.33653961077133},{"id":376,"distance":0.35121864066721},{"id":304,"distance":0.36981231143108},{"id":195,"distance":0.42750628150732},{"id":2008,"distance":0.5480249957844}]},{"id":316,"status":"Inactive","lastCommunication":1489751973,"latitude":40.70955958,"longitude":-74.00653609,"label":"Fulton St & William St","stationAddress":"","availableBikes":0,"availableDocks":38,"nearbyStations":[{"id":376,"distance":0.074102079065461},{"id":195,"distance":0.20709646294671},{"id":387,"distance":0.24140672570127},{"id":152,"distance":0.38242536366676},{"id":315,"distance":0.41507824795626}]},{"id":317,"status":"Active","lastCommunication":1489751870,"latitude":40.72453734,"longitude":-73.98185424,"label":"E 6 St & Avenue B","stationAddress":"","availableBikes":7,"availableDocks":20,"nearbyStations":[{"id":445,"distance":0.19965030241039},{"id":150,"distance":0.25847588704556},{"id":411,"distance":0.31229390921236},{"id":428,"distance":0.3132914016077},{"id":266,"distance":0.32515029674292}]},{"id":319,"status":"Inactive","lastCommunication":1489751898,"latitude":40.711066,"longitude":-74.009447,"label":"Fulton St & Broadway","stationAddress":"","availableBikes":0,"availableDocks":33,"nearbyStations":[{"id":195,"distance":0.14817723799072},{"id":376,"distance":0.2052281677344},{"id":152,"distance":0.25448617658086},{"id":387,"distance":0.27841743430326},{"id":309,"distance":0.32856767584651}]},{"id":320,"status":"Inactive","lastCommunication":1489751887,"latitude":40.717571,"longitude":-74.005549,"label":"Leonard St & Church St","stationAddress":"","availableBikes":0,"availableDocks":36,"nearbyStations":[{"id":79,"distance":0.12171890974379},{"id":386,"distance":0.24699741561215},{"id":152,"distance":0.27014095689529},{"id":268,"distance":0.32249496229059},{"id":377,"distance":0.33635019971115}]},{"id":321,"status":"Inactive","lastCommunication":1489751910,"latitude":40.69991755,"longitude":-73.98971773,"label":"Cadman Plaza E & Red Cross Pl","stationAddress":"","availableBikes":0,"availableDocks":23,"nearbyStations":[{"id":407,"distance":0.098613679121603},{"id":232,"distance":0.27322957330756},{"id":216,"distance":0.3035649693792},{"id":3180,"distance":0.39565971280851},{"id":261,"distance":0.47900258187274}]},{"id":322,"status":"Inactive","lastCommunication":1489751951,"latitude":40.696192,"longitude":-73.991218,"label":"Clinton St & Tillary St","stationAddress":"","availableBikes":0,"availableDocks":18,"nearbyStations":[{"id":232,"distance":0.057947121243662},{"id":143,"distance":0.28574888580567},{"id":407,"distance":0.29578886028061},{"id":3180,"distance":0.35717827458784},{"id":216,"distance":0.36544774226347}]},{"id":323,"status":"Inactive","lastCommunication":1489751776,"latitude":40.69236178,"longitude":-73.98631746,"label":"Lawrence St & Willoughby St","stationAddress":"","availableBikes":0,"availableDocks":22,"nearbyStations":[{"id":261,"distance":0.21704254025766},{"id":310,"distance":0.25951893304037},{"id":239,"distance":0.26419915330474},{"id":232,"distance":0.32044970599378},{"id":143,"distance":0.36997471739547}]},{"id":324,"status":"Inactive","lastCommunication":1489751871,"latitude":40.689888,"longitude":-73.981013,"label":"DeKalb Ave & Hudson Ave","stationAddress":"","availableBikes":0,"availableDocks":20,"nearbyStations":[{"id":243,"distance":0.14314579805025},{"id":239,"distance":0.14435646286096},{"id":274,"distance":0.30592391272999},{"id":245,"distance":0.31300324529939},{"id":241,"distance":0.31868981423076}]},{"id":325,"status":"Active","lastCommunication":1489751922,"latitude":40.73624527,"longitude":-73.98473765,"label":"E 19 St & 3 Ave","stationAddress":"","availableBikes":3,"availableDocks":30,"nearbyStations":[{"id":285,"distance":0.33556299921571},{"id":402,"distance":0.3790594722752},{"id":382,"distance":0.39125513884731},{"id":174,"distance":0.4073479062283},{"id":237,"distance":0.41217786206748}]},{"id":326,"status":"Active","lastCommunication":1489751762,"latitude":40.72953837,"longitude":-73.98426726,"label":"E 11 St & 1 Ave","stationAddress":"","availableBikes":26,"availableDocks":1,"nearbyStations":[{"id":237,"distance":0.14393221973161},{"id":433,"distance":0.19346844713325},{"id":445,"distance":0.20951648079992},{"id":511,"distance":0.34276342012339},{"id":3263,"distance":0.34625933465395}]},{"id":327,"status":"Inactive","lastCommunication":1489751927,"latitude":40.7153379,"longitude":-74.01658354,"label":"Vesey Pl & River Terrace","stationAddress":"","availableBikes":0,"availableDocks":34,"nearbyStations":[{"id":309,"distance":0.18869291075908},{"id":426,"distance":0.23312367687465},{"id":3002,"distance":0.2678898844349},{"id":152,"distance":0.39378391175504},{"id":3436,"distance":0.53604220847197}]},{"id":328,"status":"Inactive","lastCommunication":1489751787,"latitude":40.72405549,"longitude":-74.00965965,"label":"Watts St & Greenwich St","stationAddress":"","availableBikes":0,"availableDocks":3,"nearbyStations":[{"id":3436,"distance":0.19027262466216},{"id":377,"distance":0.23719988178215},{"id":3256,"distance":0.26692240202761},{"id":79,"distance":0.37560687761701},{"id":426,"distance":0.48676824012808}]},{"id":330,"status":"Inactive","lastCommunication":1489751781,"latitude":40.71450451,"longitude":-74.00562789,"label":"Reade St & Broadway","stationAddress":"","availableBikes":0,"availableDocks":35,"nearbyStations":[{"id":387,"distance":0.13359063229432},{"id":386,"distance":0.17465660168633},{"id":152,"distance":0.18290062518564},{"id":79,"distance":0.32322044977616},{"id":308,"distance":0.38548783953022}]},{"id":331,"status":"Active","lastCommunication":1489751855,"latitude":40.71173107,"longitude":-73.99193043,"label":"Pike St & Monroe St","stationAddress":"","availableBikes":7,"availableDocks":20,"nearbyStations":[{"id":408,"distance":0.1275780984924},{"id":295,"distance":0.16981130183835},{"id":340,"distance":0.22810423271988},{"id":412,"distance":0.30671830643938},{"id":296,"distance":0.3151268587822}]},{"id":332,"status":"Active","lastCommunication":1489751786,"latitude":40.71219906,"longitude":-73.97948148,"label":"Cherry St","stationAddress":"","availableBikes":19,"availableDocks":5,"nearbyStations":[{"id":356,"distance":0.3229926999429},{"id":342,"distance":0.36113529089375},{"id":341,"distance":0.42293685712043},{"id":340,"distance":0.43508722448141},{"id":350,"distance":0.45972159903911}]},{"id":334,"status":"Inactive","lastCommunication":1489751950,"latitude":40.74238787,"longitude":-73.99726235,"label":"W 20 St & 7 Ave","stationAddress":"","availableBikes":0,"availableDocks":16,"nearbyStations":[{"id":116,"distance":0.22571172605414},{"id":466,"distance":0.32302037148822},{"id":444,"distance":0.42466361413393},{"id":402,"distance":0.42771314760159},{"id":254,"distance":0.48962056269389}]},{"id":335,"status":"Active","lastCommunication":1489751908,"latitude":40.72903917,"longitude":-73.99404649,"label":"Washington Pl & Broadway","stationAddress":"","availableBikes":14,"availableDocks":13,"nearbyStations":[{"id":3263,"distance":0.16698906030854},{"id":3265,"distance":0.39208774080947},{"id":369,"distance":0.39362040143612},{"id":237,"distance":0.39602519023972},{"id":285,"distance":0.41799194000167}]},{"id":336,"status":"Inactive","lastCommunication":1489751851,"latitude":40.73047747,"longitude":-73.99906065,"label":"Sullivan St & Washington Sq","stationAddress":"","availableBikes":0,"availableDocks":4,"nearbyStations":[{"id":369,"distance":0.13719193960375},{"id":335,"distance":0.28073090025284},{"id":254,"distance":0.33943965648732},{"id":3263,"distance":0.43746602277639},{"id":382,"distance":0.48062446268793}]},{"id":337,"status":"Inactive","lastCommunication":1489751790,"latitude":40.7037992,"longitude":-74.00838676,"label":"Old Slip & Front St","stationAddress":"","availableBikes":0,"availableDocks":36,"nearbyStations":[{"id":315,"distance":0.089852446877868},{"id":259,"distance":0.27324083849908},{"id":304,"distance":0.27997029578001},{"id":376,"distance":0.33874882333284},{"id":195,"distance":0.37874325535754}]},{"id":339,"status":"Active","lastCommunication":1489751988,"latitude":40.72580614,"longitude":-73.97422494,"label":"Avenue D & E 12 St","stationAddress":"","availableBikes":17,"availableDocks":7,"nearbyStations":[{"id":266,"distance":0.16694848461428},{"id":411,"distance":0.2756063500362},{"id":511,"distance":0.30788337086776},{"id":445,"distance":0.39268815207184},{"id":302,"distance":0.3949481403419}]},{"id":340,"status":"Active","lastCommunication":1489751867,"latitude":40.71269042,"longitude":-73.98776323,"label":"Madison St & Clinton St","stationAddress":"","availableBikes":11,"availableDocks":15,"nearbyStations":[{"id":350,"distance":0.20435145755766},{"id":331,"distance":0.22810423271988},{"id":295,"distance":0.28728106644331},{"id":408,"distance":0.35297502971624},{"id":356,"distance":0.36398112603955}]},{"id":341,"status":"Active","lastCommunication":1489751791,"latitude":40.71782143,"longitude":-73.97628939,"label":"Stanton St & Mangin St","stationAddress":"","availableBikes":11,"availableDocks":6,"nearbyStations":[{"id":342,"distance":0.20508051912457},{"id":302,"distance":0.22486884206569},{"id":400,"distance":0.30427337438066},{"id":411,"distance":0.30883960608102},{"id":150,"distance":0.31893737503742}]},{"id":342,"status":"Active","lastCommunication":1489751974,"latitude":40.71739973,"longitude":-73.98016555,"label":"Columbia St & Rivington St","stationAddress":"","availableBikes":19,"availableDocks":9,"nearbyStations":[{"id":356,"distance":0.15162305208364},{"id":400,"distance":0.15390844469735},{"id":349,"distance":0.18089960914784},{"id":341,"distance":0.20508051912457},{"id":150,"distance":0.24275947758544}]},{"id":343,"status":"Inactive","lastCommunication":1489751815,"latitude":40.69794,"longitude":-73.96986848,"label":"Clinton Ave & Flushing Ave","stationAddress":"","availableBikes":0,"availableDocks":6,"nearbyStations":[{"id":262,"distance":0.4711254651729},{"id":244,"distance":0.47570497743228},{"id":245,"distance":0.49520092010385},{"id":354,"distance":0.49853398703683},{"id":2005,"distance":0.51282367788985}]},{"id":344,"status":"Active","lastCommunication":1489751949,"latitude":40.6851443,"longitude":-73.95380904,"label":"Monroe St & Bedford Ave","stationAddress":"","availableBikes":16,"availableDocks":7,"nearbyStations":[{"id":436,"distance":0.20603713946659},{"id":289,"distance":0.26508341580427},{"id":396,"distance":0.34732770406175},{"id":437,"distance":0.34856824399853},{"id":409,"distance":0.40444354438756}]},{"id":345,"status":"Inactive","lastCommunication":1489751845,"latitude":40.73649403,"longitude":-73.99704374,"label":"W 13 St & 6 Ave","stationAddress":"","availableBikes":0,"availableDocks":15,"nearbyStations":[{"id":254,"distance":0.095193538093234},{"id":382,"distance":0.28516708811563},{"id":369,"distance":0.33879426663737},{"id":285,"distance":0.35637940366289},{"id":116,"distance":0.43309912521353}]},{"id":346,"status":"Inactive","lastCommunication":1489751795,"latitude":40.73652889,"longitude":-74.00618026,"label":"Bank St & Hudson St","stationAddress":"","availableBikes":0,"availableDocks":13,"nearbyStations":[{"id":225,"distance":0.38699549671688},{"id":369,"distance":0.4286395687174},{"id":254,"distance":0.43609170979452},{"id":116,"distance":0.43767481583208},{"id":3256,"distance":0.66537415972201}]},{"id":347,"status":"Inactive","lastCommunication":1489751778,"latitude":40.728846,"longitude":-74.008591,"label":"Greenwich St & W Houston St","stationAddress":"","availableBikes":0,"availableDocks":29,"nearbyStations":[{"id":3256,"distance":0.16178938700803},{"id":377,"distance":0.46855008386573},{"id":369,"distance":0.49512222919476},{"id":3436,"distance":0.52579390652727},{"id":79,"distance":0.67986276651621}]},{"id":348,"status":"Inactive","lastCommunication":1489751870,"latitude":40.72490985,"longitude":-74.00154702,"label":"W Broadway & Spring St","stationAddress":"","availableBikes":0,"availableDocks":14,"nearbyStations":[{"id":377,"distance":0.275068608219},{"id":151,"distance":0.29707245558674},{"id":268,"distance":0.41216774479392},{"id":79,"distance":0.48184892476991},{"id":335,"distance":0.48545833427816}]},{"id":349,"status":"Active","lastCommunication":1489751858,"latitude":40.71850211,"longitude":-73.98329859,"label":"Rivington St & Ridge St","stationAddress":"","availableBikes":14,"availableDocks":8,"nearbyStations":[{"id":400,"distance":0.095242849731237},{"id":356,"distance":0.1613015628207},{"id":342,"distance":0.18089960914784},{"id":150,"distance":0.20781807255038},{"id":350,"distance":0.28022676443847}]},{"id":350,"status":"Active","lastCommunication":1489751993,"latitude":40.71559509,"longitude":-73.9870295,"label":"Clinton St & Grand St","stationAddress":"","availableBikes":13,"availableDocks":13,"nearbyStations":[{"id":340,"distance":0.20435145755766},{"id":356,"distance":0.23543051362963},{"id":349,"distance":0.28022676443847},{"id":295,"distance":0.3270296240995},{"id":331,"distance":0.37036819792122}]},{"id":351,"status":"Inactive","lastCommunication":1489751868,"latitude":40.70530954,"longitude":-74.00612572,"label":"Front St & Maiden Ln","stationAddress":"","availableBikes":0,"availableDocks":38,"nearbyStations":[{"id":315,"distance":0.12502198125738},{"id":376,"distance":0.2359331534781},{"id":195,"distance":0.3434290089429},{"id":304,"distance":0.39517834987682},{"id":259,"distance":0.43108935900602}]},{"id":352,"status":"Inactive","lastCommunication":1482251979,"latitude":40.76340613,"longitude":-73.97722479,"label":"W 56 St & 6 Ave","stationAddress":"","availableBikes":0,"availableDocks":0,"nearbyStations":[{"id":2006,"distance":0.17903761711015},{"id":520,"distance":0.24379492284438},{"id":469,"distance":0.2855777171223},{"id":500,"distance":0.33034429449917},{"id":457,"distance":0.33876075663643}]},{"id":353,"status":"Active","lastCommunication":1489751892,"latitude":40.68539567,"longitude":-73.97431458,"label":"S Portland Ave & Hanson Pl","stationAddress":"","availableBikes":9,"availableDocks":18,"nearbyStations":[{"id":83,"distance":0.15113153503399},{"id":274,"distance":0.1626686056443},{"id":397,"distance":0.28018104036057},{"id":467,"distance":0.28921845386312},{"id":241,"distance":0.3067499037363}]},{"id":354,"status":"Active","lastCommunication":1489751765,"latitude":40.69363137,"longitude":-73.96223558,"label":"Emerson Pl & Myrtle Ave","stationAddress":"","availableBikes":11,"availableDocks":12,"nearbyStations":[{"id":244,"distance":0.20068080858169},{"id":364,"distance":0.33639555750303},{"id":409,"distance":0.36733269323879},{"id":399,"distance":0.37748850251561},{"id":373,"distance":0.44143231988831}]},{"id":355,"status":"Inactive","lastCommunication":1489751833,"latitude":40.71602118,"longitude":-73.99974372,"label":"Bayard St & Baxter St","stationAddress":"","availableBikes":0,"availableDocks":23,"nearbyStations":[{"id":386,"distance":0.15510022179284},{"id":296,"distance":0.19238194945722},{"id":268,"distance":0.21311077029038},{"id":308,"distance":0.2132777243668},{"id":412,"distance":0.28944973432301}]},{"id":356,"status":"Active","lastCommunication":1489751996,"latitude":40.71622644,"longitude":-73.98261206,"label":"Bialystoker Pl & Delancey St","stationAddress":"","availableBikes":18,"availableDocks":5,"nearbyStations":[{"id":342,"distance":0.15162305208364},{"id":349,"distance":0.1613015628207},{"id":400,"distance":0.21414550355493},{"id":350,"distance":0.23543051362963},{"id":332,"distance":0.3229926999429}]},{"id":357,"status":"Inactive","lastCommunication":1489751765,"latitude":40.73261787,"longitude":-73.99158043,"label":"E 11 St & Broadway","stationAddress":"","availableBikes":0,"availableDocks":16,"nearbyStations":[{"id":285,"distance":0.14026308610366},{"id":382,"distance":0.16109367633125},{"id":3263,"distance":0.23660348186649},{"id":335,"distance":0.27896330489127},{"id":237,"distance":0.29432905493059}]},{"id":358,"status":"Inactive","lastCommunication":1489751871,"latitude":40.73291553,"longitude":-74.00711384,"label":"Christopher St & Greenwich St","stationAddress":"","availableBikes":0,"availableDocks":4,"nearbyStations":[{"id":369,"distance":0.36167224190326},{"id":3256,"distance":0.42085839866417},{"id":254,"distance":0.50517221329822},{"id":225,"distance":0.62619573726521},{"id":116,"distance":0.67919250394773}]},{"id":359,"status":"Active","lastCommunication":1489751915,"latitude":40.75510267,"longitude":-73.97498696,"label":"E 47 St & Park Ave","stationAddress":"","availableBikes":4,"availableDocks":51,"nearbyStations":[{"id":228,"distance":0.1663352969815},{"id":522,"distance":0.20770658005997},{"id":519,"distance":0.26468346668208},{"id":517,"distance":0.28744264826835},{"id":520,"distance":0.34215387773501}]},{"id":360,"status":"Inactive","lastCommunication":1489751887,"latitude":40.70717936,"longitude":-74.00887308,"label":"William St & Pine St","stationAddress":"","availableBikes":0,"availableDocks":33,"nearbyStations":[{"id":376,"distance":0.13195490046519},{"id":195,"distance":0.15330295019711},{"id":315,"distance":0.27511783637703},{"id":304,"distance":0.30446304009123},{"id":2008,"distance":0.42655764628176}]},{"id":361,"status":"Inactive","lastCommunication":1489751916,"latitude":40.71605866,"longitude":-73.99190759,"label":"Allen St & Hester St","stationAddress":"","availableBikes":0,"availableDocks":6,"nearbyStations":[{"id":412,"distance":0.12245700125989},{"id":295,"distance":0.14786430564596},{"id":350,"distance":0.25747945044282},{"id":331,"distance":0.29902841094494},{"id":296,"distance":0.3003153187771}]},{"id":362,"status":"Active","lastCommunication":1489751937,"latitude":40.75172632,"longitude":-73.98753523,"label":"Broadway & W 37 St","stationAddress":"","availableBikes":2,"availableDocks":55,"nearbyStations":[{"id":267,"distance":0.052142320969984},{"id":533,"distance":0.089334926650742},{"id":492,"distance":0.2066799894269},{"id":465,"distance":0.24081522884347},{"id":153,"distance":0.30985094675815}]},{"id":363,"status":"Inactive","lastCommunication":1489751857,"latitude":40.70834698,"longitude":-74.01713445,"label":"West Thames St","stationAddress":"","availableBikes":0,"availableDocks":34,"nearbyStations":[{"id":2008,"distance":0.18436934864583},{"id":3002,"distance":0.2303050195026},{"id":304,"distance":0.31589599695418},{"id":195,"distance":0.35437339322605},{"id":309,"distance":0.5065575622711}]},{"id":364,"status":"Active","lastCommunication":1489751772,"latitude":40.68900443,"longitude":-73.96023854,"label":"Lafayette Ave & Classon Ave","stationAddress":"","availableBikes":10,"availableDocks":16,"nearbyStations":[{"id":409,"distance":0.22959858249847},{"id":399,"distance":0.23944140505171},{"id":289,"distance":0.31552206075719},{"id":3049,"distance":0.32056789556867},{"id":275,"distance":0.33139011802973}]},{"id":365,"status":"Active","lastCommunication":1489751843,"latitude":40.68223166,"longitude":-73.9614583,"label":"Fulton St & Grand Ave","stationAddress":"","availableBikes":9,"availableDocks":22,"nearbyStations":[{"id":3049,"distance":0.20088694223311},{"id":289,"distance":0.21286719524068},{"id":396,"distance":0.32545053335416},{"id":275,"distance":0.36723551890849},{"id":436,"distance":0.39134627309762}]},{"id":366,"status":"Inactive","lastCommunication":1489751982,"latitude":40.693261,"longitude":-73.968896,"label":"Clinton Ave & Myrtle Ave","stationAddress":"","availableBikes":0,"availableDocks":14,"nearbyStations":[{"id":244,"distance":0.205502514255},{"id":262,"distance":0.27308786407923},{"id":354,"distance":0.34987930203832},{"id":399,"distance":0.39296379132602},{"id":241,"distance":0.39601721450358}]},{"id":367,"status":"Inactive","lastCommunication":1485440625,"latitude":40.75828065,"longitude":-73.97069431,"label":"E 53 St & Lexington Ave","stationAddress":"","availableBikes":0,"availableDocks":0,"nearbyStations":[{"id":522,"distance":0.10666485652075},{"id":3223,"distance":0.11769019876789},{"id":385,"distance":0.24488958262702},{"id":228,"distance":0.26169824973173},{"id":359,"distance":0.3141675096558}]},{"id":368,"status":"Inactive","lastCommunication":1489751870,"latitude":40.73038599,"longitude":-74.00214988,"label":"Carmine St & 6 Ave","stationAddress":"","availableBikes":0,"availableDocks":16,"nearbyStations":[{"id":369,"distance":0.16181469962822},{"id":254,"distance":0.40441423858769},{"id":335,"distance":0.43439432302409},{"id":3256,"distance":0.51325407585937},{"id":377,"distance":0.57920494702148}]},{"id":369,"status":"Active","lastCommunication":1489751911,"latitude":40.73224119,"longitude":-74.00026394,"label":"Washington Pl & 6 Ave","stationAddress":"","availableBikes":14,"availableDocks":19,"nearbyStations":[{"id":254,"distance":0.24368474889648},{"id":335,"distance":0.39362040143612},{"id":382,"distance":0.4705635453107},{"id":285,"distance":0.5233993767149},{"id":3263,"distance":0.53399335031922}]},{"id":372,"status":"Inactive","lastCommunication":1489751894,"latitude":40.694528,"longitude":-73.958089,"label":"Franklin Ave & Myrtle Ave","stationAddress":"","availableBikes":0,"availableDocks":13,"nearbyStations":[{"id":354,"distance":0.22590081002092},{"id":373,"distance":0.23879253440788},{"id":409,"distance":0.28171989625327},{"id":3063,"distance":0.3033980698328},{"id":364,"distance":0.39793375950639}]},{"id":373,"status":"Active","lastCommunication":1489751889,"latitude":40.69331716,"longitude":-73.95381995,"label":"Willoughby Ave & Walworth St","stationAddress":"","availableBikes":7,"availableDocks":12,"nearbyStations":[{"id":3063,"distance":0.15456975116721},{"id":3056,"distance":0.22141200184616},{"id":409,"distance":0.22954638935969},{"id":354,"distance":0.44143231988831},{"id":364,"distance":0.44932228237581}]},{"id":376,"status":"Active","lastCommunication":1489751987,"latitude":40.70862144,"longitude":-74.00722156,"label":"John St & William St","stationAddress":"","availableBikes":6,"availableDocks":36,"nearbyStations":[{"id":195,"distance":0.17091388315725},{"id":387,"distance":0.31535336250265},{"id":315,"distance":0.35121864066721},{"id":304,"distance":0.4337746532641},{"id":152,"distance":0.43414433555687}]},{"id":377,"status":"Active","lastCommunication":1489751793,"latitude":40.72243797,"longitude":-74.00566443,"label":"6 Ave & Canal St","stationAddress":"","availableBikes":3,"availableDocks":44,"nearbyStations":[{"id":79,"distance":0.23549598724419},{"id":3436,"distance":0.24307394520591},{"id":268,"distance":0.38665323427117},{"id":151,"distance":0.44130116188099},{"id":3256,"distance":0.46889926260519}]},{"id":379,"status":"Inactive","lastCommunication":1489751825,"latitude":40.749156,"longitude":-73.9916,"label":"W 31 St & 7 Ave","stationAddress":"","availableBikes":0,"availableDocks":19,"nearbyStations":[{"id":492,"distance":0.080189128865696},{"id":267,"distance":0.24185514540902},{"id":362,"distance":0.27715519807199},{"id":533,"distance":0.35081962068045},{"id":466,"distance":0.35952527860858}]},{"id":380,"status":"Inactive","lastCommunication":1489751826,"latitude":40.73401143,"longitude":-74.00293877,"label":"W 4 St & 7 Ave S","stationAddress":"","availableBikes":0,"availableDocks":29,"nearbyStations":[{"id":369,"distance":0.18594773057533},{"id":254,"distance":0.27382718592247},{"id":116,"distance":0.54179584458501},{"id":382,"distance":0.57595176010729},{"id":335,"distance":0.57864327302622}]},{"id":382,"status":"Active","lastCommunication":1489751893,"latitude":40.73492695,"longitude":-73.99200509,"label":"University Pl & E 14 St","stationAddress":"","availableBikes":22,"availableDocks":13,"nearbyStations":[{"id":285,"distance":0.071215502287076},{"id":254,"distance":0.31529611142099},{"id":325,"distance":0.39125513884731},{"id":402,"distance":0.39568954011269},{"id":3263,"distance":0.39767826287218}]},{"id":383,"status":"Inactive","lastCommunication":1489751847,"latitude":40.735238,"longitude":-74.000271,"label":"Greenwich Ave & Charles St","stationAddress":"","availableBikes":0,"availableDocks":18,"nearbyStations":[{"id":254,"distance":0.11883410141451},{"id":369,"distance":0.20707266390278},{"id":382,"distance":0.43331699994554},{"id":116,"distance":0.45630260438397},{"id":285,"distance":0.50123595288221}]},{"id":384,"status":"Inactive","lastCommunication":1489751865,"latitude":40.683048,"longitude":-73.964915,"label":"Fulton St & Washington Ave","stationAddress":"","availableBikes":0,"availableDocks":2,"nearbyStations":[{"id":3049,"distance":0.16023884098272},{"id":365,"distance":0.18970729127389},{"id":397,"distance":0.23838060543841},{"id":275,"distance":0.24151846666958},{"id":289,"distance":0.33665644967551}]},{"id":385,"status":"Active","lastCommunication":1489751953,"latitude":40.75797322,"longitude":-73.96603308,"label":"E 55 St & 2 Ave","stationAddress":"","availableBikes":27,"availableDocks":2,"nearbyStations":[{"id":3223,"distance":0.154327983586},{"id":522,"distance":0.32151170116074},{"id":2022,"distance":0.36494193926907},{"id":228,"distance":0.3845922268774},{"id":3376,"distance":0.50699687885022}]},{"id":386,"status":"Active","lastCommunication":1489751881,"latitude":40.71494807,"longitude":-74.00234482,"label":"Centre St & Worth St","stationAddress":"","availableBikes":2,"availableDocks":37,"nearbyStations":[{"id":387,"distance":0.19358362265627},{"id":308,"distance":0.23869400300799},{"id":296,"distance":0.28316442483564},{"id":268,"distance":0.31815567065288},{"id":152,"distance":0.35441324648156}]},{"id":387,"status":"Active","lastCommunication":1489751872,"latitude":40.71273266,"longitude":-74.0046073,"label":"Centre St & Chambers St","stationAddress":"","availableBikes":2,"availableDocks":36,"nearbyStations":[{"id":386,"distance":0.19358362265627},{"id":152,"distance":0.27342092107336},{"id":376,"distance":0.31535336250265},{"id":308,"distance":0.32014215585099},{"id":195,"distance":0.39706866088043}]},{"id":388,"status":"Inactive","lastCommunication":1489751770,"latitude":40.749717753,"longitude":-74.002950346,"label":"W 26 St & 10 Ave","stationAddress":"","availableBikes":0,"availableDocks":32,"nearbyStations":[{"id":525,"distance":0.43226236426921},{"id":116,"distance":0.55399960804312},{"id":225,"distance":0.59891130487789},{"id":492,"distance":0.63005345576349},{"id":466,"distance":0.72188724120795}]},{"id":389,"status":"Inactive","lastCommunication":1489751771,"latitude":40.71044554,"longitude":-73.96525063,"label":"Broadway & Berry St","stationAddress":"","availableBikes":0,"availableDocks":12,"nearbyStations":[{"id":443,"distance":0.14561370945203},{"id":532,"distance":0.22913045580671},{"id":3078,"distance":0.29597806620368},{"id":3075,"distance":0.44650570434612},{"id":2002,"distance":0.4578885665479}]},{"id":390,"status":"Inactive","lastCommunication":1489751902,"latitude":40.69221589,"longitude":-73.9842844,"label":"Duffield St & Willoughby St","stationAddress":"","availableBikes":0,"availableDocks":29,"nearbyStations":[{"id":239,"distance":0.15721646677731},{"id":261,"distance":0.17839919869456},{"id":310,"distance":0.32537171348762},{"id":243,"distance":0.37680029851146},{"id":245,"distance":0.38653394403849}]},{"id":391,"status":"Inactive","lastCommunication":1489751864,"latitude":40.69760127,"longitude":-73.99344559,"label":"Clark St & Henry St","stationAddress":"","availableBikes":0,"availableDocks":26,"nearbyStations":[{"id":232,"distance":0.20597573572324},{"id":3180,"distance":0.2090122608916},{"id":216,"distance":0.21953320834916},{"id":407,"distance":0.22394139888107},{"id":143,"distance":0.35975617171266}]},{"id":392,"status":"Inactive","lastCommunication":1489751995,"latitude":40.695065,"longitude":-73.987167,"label":"Jay St & Tech Pl","stationAddress":"","availableBikes":0,"availableDocks":19,"nearbyStations":[{"id":232,"distance":0.16844607215679},{"id":261,"distance":0.18686323030025},{"id":143,"distance":0.37410640412655},{"id":239,"distance":0.37454520546682},{"id":144,"distance":0.41016489085797}]},{"id":393,"status":"Inactive","lastCommunication":1489751812,"latitude":40.72299208,"longitude":-73.97995466,"label":"E 5 St & Avenue C","stationAddress":"","availableBikes":0,"availableDocks":15,"nearbyStations":[{"id":317,"distance":0.14593080514553},{"id":150,"distance":0.15383519366165},{"id":411,"distance":0.17803125032917},{"id":302,"distance":0.18323680614899},{"id":266,"distance":0.22540581436386}]},{"id":394,"status":"Inactive","lastCommunication":1489751951,"latitude":40.72521311,"longitude":-73.97768752,"label":"E 9 St & Avenue C","stationAddress":"","availableBikes":0,"availableDocks":7,"nearbyStations":[{"id":266,"distance":0.14657190311529},{"id":339,"distance":0.18589125907647},{"id":411,"distance":0.2092742546585},{"id":317,"distance":0.22313355912359},{"id":445,"distance":0.24738993260181}]},{"id":395,"status":"Inactive","lastCommunication":1489751778,"latitude":40.68807003,"longitude":-73.98410637,"label":"Bond St & Schermerhorn St","stationAddress":"","availableBikes":0,"availableDocks":19,"nearbyStations":[{"id":3412,"distance":0.19463174322955},{"id":243,"distance":0.24776584031322},{"id":310,"distance":0.27588130393329},{"id":239,"distance":0.30667332964544},{"id":3413,"distance":0.37580807338776}]},{"id":396,"status":"Active","lastCommunication":1489751972,"latitude":40.680342423,"longitude":-73.9557689392,"label":"Lefferts Pl & Franklin Ave","stationAddress":"","availableBikes":5,"availableDocks":19,"nearbyStations":[{"id":436,"distance":0.15670893491172},{"id":437,"distance":0.30303499838677},{"id":365,"distance":0.32545053335416},{"id":289,"distance":0.3326684586745},{"id":344,"distance":0.34732770406175}]},{"id":397,"status":"Active","lastCommunication":1489751787,"latitude":40.68415748,"longitude":-73.96922273,"label":"Fulton St & Clermont Ave","stationAddress":"","availableBikes":4,"availableDocks":23,"nearbyStations":[{"id":275,"distance":0.24817451772956},{"id":353,"distance":0.28018104036057},{"id":3049,"distance":0.32778340678824},{"id":83,"distance":0.3727576643567},{"id":399,"distance":0.38115522856198}]},{"id":398,"status":"Active","lastCommunication":1489751869,"latitude":40.69165183,"longitude":-73.9999786,"label":"Atlantic Ave & Furman St","stationAddress":"","availableBikes":28,"availableDocks":3,"nearbyStations":[{"id":3311,"distance":0.2908857012019},{"id":143,"distance":0.34955107758503},{"id":3422,"distance":0.41562734748992},{"id":3180,"distance":0.51480367428573},{"id":310,"distance":0.59181373855495}]},{"id":399,"status":"Active","lastCommunication":1489751875,"latitude":40.68851534,"longitude":-73.9647628,"label":"Lafayette Ave & St James Pl","stationAddress":"","availableBikes":10,"availableDocks":16,"nearbyStations":[{"id":275,"distance":0.14648770790953},{"id":364,"distance":0.23944140505171},{"id":244,"distance":0.24014794984335},{"id":3049,"distance":0.26691988020256},{"id":354,"distance":0.37748850251561}]},{"id":400,"status":"Active","lastCommunication":1489751970,"latitude":40.71926081,"longitude":-73.98178024,"label":"Pitt St & Stanton St","stationAddress":"","availableBikes":6,"availableDocks":7,"nearbyStations":[{"id":349,"distance":0.095242849731237},{"id":150,"distance":0.12145667620484},{"id":342,"distance":0.15390844469735},{"id":356,"distance":0.21414550355493},{"id":302,"distance":0.22880558840427}]},{"id":401,"status":"Inactive","lastCommunication":1489751920,"latitude":40.72019576,"longitude":-73.98997825,"label":"Allen St & Rivington St","stationAddress":"","availableBikes":0,"availableDocks":22,"nearbyStations":[{"id":473,"distance":0.11961286678483},{"id":265,"distance":0.16479093414699},{"id":3265,"distance":0.30309047649057},{"id":428,"distance":0.32938583993434},{"id":350,"distance":0.35342017739251}]},{"id":402,"status":"Active","lastCommunication":1489751851,"latitude":40.7403432,"longitude":-73.98955109,"label":"Broadway & E 22 St","stationAddress":"","availableBikes":1,"availableDocks":39,"nearbyStations":[{"id":444,"distance":0.14053374370432},{"id":466,"distance":0.26855563712578},{"id":325,"distance":0.3790594722752},{"id":382,"distance":0.39568954011269},{"id":285,"distance":0.40541395944218}]},{"id":405,"status":"Inactive","lastCommunication":1485455060,"latitude":40.739323,"longitude":-74.008119,"label":"Washington St & Gansevoort St","stationAddress":"","availableBikes":0,"availableDocks":3,"nearbyStations":[{"id":225,"distance":0.18167429691981},{"id":116,"distance":0.38587917937037},{"id":254,"distance":0.59731680232861},{"id":369,"distance":0.63921139159262},{"id":3256,"distance":0.81921180629143}]},{"id":406,"status":"Inactive","lastCommunication":1489751791,"latitude":40.69512845,"longitude":-73.99595065,"label":"Hicks St & Montague St","stationAddress":"","availableBikes":0,"availableDocks":19,"nearbyStations":[{"id":143,"distance":0.23199965220446},{"id":3180,"distance":0.25964344865647},{"id":232,"distance":0.30954678996102},{"id":398,"distance":0.31975079814471},{"id":216,"distance":0.36361232653065}]},{"id":407,"status":"Active","lastCommunication":1489751765,"latitude":40.700469,"longitude":-73.991454,"label":"Henry St & Poplar St","stationAddress":"","availableBikes":20,"availableDocks":17,"nearbyStations":[{"id":216,"distance":0.21102491428952},{"id":232,"distance":0.3178384309765},{"id":3180,"distance":0.31893618356604},{"id":143,"distance":0.56693485910473},{"id":261,"distance":0.5696077198097}]},{"id":408,"status":"Active","lastCommunication":1489751776,"latitude":40.71076228,"longitude":-73.99400398,"label":"Market St & Cherry St","stationAddress":"","availableBikes":11,"availableDocks":9,"nearbyStations":[{"id":331,"distance":0.1275780984924},{"id":295,"distance":0.23503853146928},{"id":296,"distance":0.28209402679273},{"id":308,"distance":0.28526474693012},{"id":412,"distance":0.34935481534371}]},{"id":409,"status":"Active","lastCommunication":1489751840,"latitude":40.6906495,"longitude":-73.95643107,"label":"DeKalb Ave & Skillman St","stationAddress":"","availableBikes":14,"availableDocks":5,"nearbyStations":[{"id":373,"distance":0.22954638935969},{"id":364,"distance":0.22959858249847},{"id":3056,"distance":0.26706618679008},{"id":354,"distance":0.36733269323879},{"id":3063,"distance":0.38334735189014}]},{"id":410,"status":"Inactive","lastCommunication":1489751889,"latitude":40.72066442,"longitude":-73.98517977,"label":"Suffolk St & Stanton St","stationAddress":"","availableBikes":0,"availableDocks":18,"nearbyStations":[{"id":349,"distance":0.17896672462299},{"id":400,"distance":0.20273538801767},{"id":150,"distance":0.22679008124415},{"id":428,"distance":0.3101652409737},{"id":317,"distance":0.31928496114841}]},{"id":411,"status":"Active","lastCommunication":1489751771,"latitude":40.72228087,"longitude":-73.97668709,"label":"E 6 St & Avenue D","stationAddress":"","availableBikes":20,"availableDocks":1,"nearbyStations":[{"id":266,"distance":0.10868484272873},{"id":302,"distance":0.11967338600139},{"id":150,"distance":0.23908794234622},{"id":339,"distance":0.2756063500362},{"id":341,"distance":0.30883960608102}]},{"id":412,"status":"Active","lastCommunication":1489751907,"latitude":40.7158155,"longitude":-73.99422366,"label":"Forsyth St & Canal St","stationAddress":"","availableBikes":19,"availableDocks":9,"nearbyStations":[{"id":295,"distance":0.13830545852715},{"id":296,"distance":0.18817923150514},{"id":308,"distance":0.29358362560687},{"id":331,"distance":0.30671830643938},{"id":408,"distance":0.34935481534371}]},{"id":414,"status":"Inactive","lastCommunication":1489751929,"latitude":40.70281858,"longitude":-73.98765762,"label":"Pearl St & Anchorage Pl","stationAddress":"","availableBikes":0,"availableDocks":15,"nearbyStations":[{"id":407,"distance":0.25672293473562},{"id":216,"distance":0.44312297203052},{"id":144,"distance":0.47593728740092},{"id":232,"distance":0.49043198908377},{"id":3180,"distance":0.56883579896002}]},{"id":415,"status":"Inactive","lastCommunication":1489751946,"latitude":40.7047177,"longitude":-74.00926027,"label":"Pearl St & Hanover Square","stationAddress":"","availableBikes":0,"availableDocks":33,"nearbyStations":[{"id":315,"distance":0.15627637731082},{"id":304,"distance":0.22828995171661},{"id":376,"distance":0.29010813920519},{"id":259,"distance":0.29056916201726},{"id":195,"distance":0.30601931259628}]},{"id":416,"status":"Inactive","lastCommunication":1489751804,"latitude":40.68753406,"longitude":-73.97265183,"label":"Cumberland St & Lafayette Ave","stationAddress":"","availableBikes":0,"availableDocks":5,"nearbyStations":[{"id":353,"distance":0.17152964833152},{"id":241,"distance":0.1974880941569},{"id":274,"distance":0.21540103035443},{"id":397,"distance":0.29447815357672},{"id":262,"distance":0.29892804906866}]},{"id":417,"status":"Inactive","lastCommunication":1489751949,"latitude":40.71291224,"longitude":-74.01020234,"label":"Barclay St & Church St","stationAddress":"","availableBikes":0,"availableDocks":13,"nearbyStations":[{"id":152,"distance":0.13872400551797},{"id":309,"distance":0.20504272507933},{"id":195,"distance":0.26671668499843},{"id":387,"distance":0.29330374881973},{"id":3002,"distance":0.30654582119257}]},{"id":418,"status":"Inactive","lastCommunication":1489751893,"latitude":40.70224,"longitude":-73.982578,"label":"Front St & Gold St","stationAddress":"","availableBikes":0,"availableDocks":11,"nearbyStations":[{"id":144,"distance":0.28325203815165},{"id":407,"distance":0.48079575874738},{"id":261,"distance":0.52051898497208},{"id":232,"distance":0.58701719309041},{"id":2005,"distance":0.64252685774586}]},{"id":419,"status":"Inactive","lastCommunication":1489751849,"latitude":40.69580705,"longitude":-73.97355569,"label":"Carlton Ave & Park Ave","stationAddress":"","availableBikes":0,"availableDocks":12,"nearbyStations":[{"id":245,"distance":0.25303046647807},{"id":262,"distance":0.27825023131726},{"id":144,"distance":0.41440224555586},{"id":241,"distance":0.42057752556534},{"id":239,"distance":0.48491513442067}]},{"id":420,"status":"Inactive","lastCommunication":1489751857,"latitude":40.68764484,"longitude":-73.96968902,"label":"Clermont Ave & Lafayette Ave","stationAddress":"","availableBikes":0,"availableDocks":18,"nearbyStations":[{"id":275,"distance":0.22674316032936},{"id":397,"distance":0.24220356844486},{"id":399,"distance":0.26502341558409},{"id":353,"distance":0.28790866670356},{"id":241,"distance":0.31277412734513}]},{"id":421,"status":"Inactive","lastCommunication":1489751967,"latitude":40.69573398,"longitude":-73.97129668,"label":"Clermont Ave & Park Ave","stationAddress":"","availableBikes":0,"availableDocks":9,"nearbyStations":[{"id":262,"distance":0.30134279001232},{"id":245,"distance":0.34565543933106},{"id":244,"distance":0.40552212271987},{"id":241,"distance":0.45143314733662},{"id":354,"distance":0.49644082782111}]},{"id":422,"status":"Inactive","lastCommunication":1489751938,"latitude":40.770513,"longitude":-73.988038,"label":"W 59 St & 10 Ave","stationAddress":"","availableBikes":0,"availableDocks":52,"nearbyStations":[{"id":3356,"distance":0.33585333998383},{"id":457,"distance":0.41321172020901},{"id":469,"distance":0.56338280024304},{"id":450,"distance":0.56948822681874},{"id":3163,"distance":0.57058793654738}]},{"id":423,"status":"Inactive","lastCommunication":1489751869,"latitude":40.76584941,"longitude":-73.98690506,"label":"W 54 St & 9 Ave","stationAddress":"","availableBikes":0,"availableDocks":36,"nearbyStations":[{"id":450,"distance":0.25241973317091},{"id":469,"distance":0.27670581127747},{"id":457,"distance":0.28320798065879},{"id":500,"distance":0.30811491673437},{"id":173,"distance":0.37803663845036}]},{"id":426,"status":"Active","lastCommunication":1489751993,"latitude":40.71754834,"longitude":-74.01322069,"label":"West St & Chambers St","stationAddress":"","availableBikes":21,"availableDocks":9,"nearbyStations":[{"id":309,"distance":0.17789199125814},{"id":152,"distance":0.28998254549103},{"id":3436,"distance":0.30853670666248},{"id":79,"distance":0.35991925192435},{"id":3002,"distance":0.43772258624142}]},{"id":427,"status":"Inactive","lastCommunication":1489751982,"latitude":40.701907,"longitude":-74.013942,"label":"Bus Slip & State St","stationAddress":"","availableBikes":0,"availableDocks":35,"nearbyStations":[{"id":259,"distance":0.096271982478572},{"id":304,"distance":0.18915091617721},{"id":2008,"distance":0.30078357671476},{"id":315,"distance":0.39594228593362},{"id":195,"distance":0.52706639181547}]},{"id":428,"status":"Active","lastCommunication":1489751827,"latitude":40.72467721,"longitude":-73.98783413,"label":"E 3 St & 1 Ave","stationAddress":"","availableBikes":29,"availableDocks":2,"nearbyStations":[{"id":3265,"distance":0.084656553210661},{"id":265,"distance":0.25196884844764},{"id":317,"distance":0.3132914016077},{"id":473,"distance":0.32707366175037},{"id":3263,"distance":0.35282636394196}]},{"id":430,"status":"Inactive","lastCommunication":1489751924,"latitude":40.7014851,"longitude":-73.98656928,"label":"York St & Jay St","stationAddress":"","availableBikes":0,"availableDocks":17,"nearbyStations":[{"id":407,"distance":0.2653409785154},{"id":144,"distance":0.37464370426852},{"id":232,"distance":0.42429681394425},{"id":216,"distance":0.47303362004495},{"id":261,"distance":0.49035747869494}]},{"id":432,"status":"Inactive","lastCommunication":1489751889,"latitude":40.72621788,"longitude":-73.98379855,"label":"E 7 St & Avenue A","stationAddress":"","availableBikes":0,"availableDocks":0,"nearbyStations":[{"id":445,"distance":0.14924453077224},{"id":317,"distance":0.15443545255748},{"id":326,"distance":0.23074681329166},{"id":428,"distance":0.23662390937711},{"id":433,"distance":0.28576642132088}]},{"id":433,"status":"Active","lastCommunication":1489751869,"latitude":40.72955361,"longitude":-73.98057249,"label":"E 13 St & Avenue A","stationAddress":"","availableBikes":36,"availableDocks":3,"nearbyStations":[{"id":511,"distance":0.14958211797621},{"id":445,"distance":0.15476078023142},{"id":326,"distance":0.19346844713325},{"id":237,"distance":0.3282979983736},{"id":317,"distance":0.35305061995579}]},{"id":434,"status":"Inactive","lastCommunication":1489751813,"latitude":40.74317449,"longitude":-74.00366443,"label":"9 Ave & W 18 St","stationAddress":"","availableBikes":0,"availableDocks":12,"nearbyStations":[{"id":116,"distance":0.14902057625289},{"id":225,"distance":0.24367738937253},{"id":254,"distance":0.6181003578909},{"id":466,"distance":0.64176977740822},{"id":444,"distance":0.76192458258267}]},{"id":435,"status":"Inactive","lastCommunication":1489751890,"latitude":40.74173969,"longitude":-73.99415556,"label":"W 21 St & 6 Ave","stationAddress":"","availableBikes":0,"availableDocks":42,"nearbyStations":[{"id":466,"distance":0.20855090756794},{"id":402,"distance":0.25965341778219},{"id":444,"distance":0.26543153829833},{"id":116,"distance":0.38437427830978},{"id":382,"distance":0.48402052981979}]},{"id":436,"status":"Active","lastCommunication":1489751840,"latitude":40.68216564,"longitude":-73.95399026,"label":"Hancock St & Bedford Ave","stationAddress":"","availableBikes":5,"availableDocks":22,"nearbyStations":[{"id":396,"distance":0.15670893491172},{"id":344,"distance":0.20603713946659},{"id":437,"distance":0.22214071883668},{"id":289,"distance":0.30226323687129},{"id":3249,"distance":0.35355268185114}]},{"id":437,"status":"Active","lastCommunication":1489751801,"latitude":40.6809833854,"longitude":-73.9500479759,"label":"Macon St & Nostrand Ave","stationAddress":"","availableBikes":11,"availableDocks":13,"nearbyStations":[{"id":3249,"distance":0.13148024943154},{"id":436,"distance":0.22214071883668},{"id":396,"distance":0.30303499838677},{"id":3047,"distance":0.32513845773084},{"id":344,"distance":0.34856824399853}]},{"id":438,"status":"Inactive","lastCommunication":1489751939,"latitude":40.72779126,"longitude":-73.98564945,"label":"St Marks Pl & 1 Ave","stationAddress":"","availableBikes":0,"availableDocks":3,"nearbyStations":[{"id":326,"distance":0.14075421760821},{"id":237,"distance":0.19365847977366},{"id":445,"distance":0.22304405525477},{"id":428,"distance":0.24369429097662},{"id":3263,"distance":0.29093534687074}]},{"id":439,"status":"Inactive","lastCommunication":1489751782,"latitude":40.7262807,"longitude":-73.98978041,"label":"E 4 St & 2 Ave","stationAddress":"","availableBikes":0,"availableDocks":6,"nearbyStations":[{"id":3265,"distance":0.11996150221284},{"id":428,"distance":0.15054297394773},{"id":3263,"distance":0.21203038094008},{"id":265,"distance":0.28945277491643},{"id":335,"distance":0.29365187533324}]},{"id":440,"status":"Inactive","lastCommunication":1489751972,"latitude":40.75255434,"longitude":-73.97282625,"label":"E 45 St & 3 Ave","stationAddress":"","availableBikes":0,"availableDocks":29,"nearbyStations":[{"id":228,"distance":0.1498684100447},{"id":359,"distance":0.20927612886113},{"id":519,"distance":0.25972889984303},{"id":517,"distance":0.27447276488296},{"id":167,"distance":0.30363385926043}]},{"id":441,"status":"Inactive","lastCommunication":1489751835,"latitude":40.756014,"longitude":-73.967416,"label":"E 52 St & 2 Ave","stationAddress":"","availableBikes":0,"availableDocks":33,"nearbyStations":[{"id":385,"distance":0.15351310124995},{"id":3223,"distance":0.21603381851131},{"id":228,"distance":0.2531741289833},{"id":522,"distance":0.25629379148949},{"id":359,"distance":0.401247697588}]},{"id":442,"status":"Inactive","lastCommunication":1489751978,"latitude":40.746647,"longitude":-73.993915,"label":"W 27 St & 7 Ave","stationAddress":"","availableBikes":0,"availableDocks":48,"nearbyStations":[{"id":466,"distance":0.22647754561318},{"id":492,"distance":0.29098538114709},{"id":444,"distance":0.38753771617961},{"id":267,"distance":0.44376456416323},{"id":362,"distance":0.48446635113138}]},{"id":443,"status":"Active","lastCommunication":1489751883,"latitude":40.70853074,"longitude":-73.96408963,"label":"Bedford Ave & S 9 St","stationAddress":"","availableBikes":6,"availableDocks":17,"nearbyStations":[{"id":532,"distance":0.2143314514306},{"id":3078,"distance":0.22906474333904},{"id":3075,"distance":0.33581390358418},{"id":2005,"distance":0.4248598099322},{"id":471,"distance":0.47796990248272}]},{"id":444,"status":"Active","lastCommunication":1489751836,"latitude":40.7423543,"longitude":-73.98915076,"label":"Broadway & W 24 St","stationAddress":"","availableBikes":0,"availableDocks":52,"nearbyStations":[{"id":402,"distance":0.14053374370432},{"id":466,"distance":0.16337688798137},{"id":325,"distance":0.4812137027738},{"id":382,"distance":0.5345261710019},{"id":285,"distance":0.54594657508535}]},{"id":445,"status":"Active","lastCommunication":1489751775,"latitude":40.72740794,"longitude":-73.98142006,"label":"E 10 St & Avenue A","stationAddress":"","availableBikes":38,"availableDocks":3,"nearbyStations":[{"id":433,"distance":0.15476078023142},{"id":317,"distance":0.19965030241039},{"id":326,"distance":0.20951648079992},{"id":511,"distance":0.23695514561745},{"id":237,"distance":0.34926072009547}]},{"id":446,"status":"Inactive","lastCommunication":1489751836,"latitude":40.74487634,"longitude":-73.99529885,"label":"W 24 St & 7 Ave","stationAddress":"","availableBikes":0,"availableDocks":17,"nearbyStations":[{"id":466,"distance":0.2113895855026},{"id":444,"distance":0.36600777256123},{"id":116,"distance":0.38883805417016},{"id":492,"distance":0.43312340331942},{"id":402,"distance":0.43434588072271}]},{"id":447,"status":"Inactive","lastCommunication":1489751851,"latitude":40.76370739,"longitude":-73.9851615,"label":"8 Ave & W 52 St","stationAddress":"","availableBikes":0,"availableDocks":26,"nearbyStations":[{"id":469,"distance":0.13110504299449},{"id":500,"distance":0.13596559159384},{"id":450,"distance":0.17351936524774},{"id":173,"distance":0.21157911447038},{"id":457,"distance":0.28851818157925}]},{"id":448,"status":"Inactive","lastCommunication":1489751974,"latitude":40.75660359,"longitude":-73.9979009,"label":"W 37 St & 10 Ave","stationAddress":"","availableBikes":0,"availableDocks":11,"nearbyStations":[{"id":525,"distance":0.22532992011795},{"id":478,"distance":0.26018652343161},{"id":3236,"distance":0.27046223610439},{"id":514,"distance":0.39017257422502},{"id":477,"distance":0.41239527569802}]},{"id":449,"status":"Inactive","lastCommunication":1489751881,"latitude":40.76461837,"longitude":-73.98789473,"label":"W 52 St & 9 Ave","stationAddress":"","availableBikes":0,"availableDocks":28,"nearbyStations":[{"id":450,"distance":0.16212640398604},{"id":469,"distance":0.28472323653204},{"id":500,"distance":0.28670723459665},{"id":495,"distance":0.29886856596981},{"id":173,"distance":0.32402574343617}]},{"id":450,"status":"Active","lastCommunication":1489751829,"latitude":40.76227205,"longitude":-73.98788205,"label":"W 49 St & 8 Ave","stationAddress":"","availableBikes":3,"availableDocks":52,"nearbyStations":[{"id":173,"distance":0.20707326618574},{"id":2021,"distance":0.2093335794472},{"id":500,"distance":0.23657398220045},{"id":495,"distance":0.27010752490895},{"id":469,"distance":0.28390935115003}]},{"id":453,"status":"Inactive","lastCommunication":1489751966,"latitude":40.74475148,"longitude":-73.99915362,"label":"W 22 St & 8 Ave","stationAddress":"","availableBikes":0,"availableDocks":1,"nearbyStations":[{"id":116,"distance":0.23942823031575},{"id":466,"distance":0.40710034166117},{"id":225,"distance":0.50336511151214},{"id":444,"distance":0.54923196574642},{"id":492,"distance":0.57185394105632}]},{"id":454,"status":"Inactive","lastCommunication":1489751941,"latitude":40.75455731,"longitude":-73.96592976,"label":"E 51 St & 1 Ave","stationAddress":"","availableBikes":0,"availableDocks":32,"nearbyStations":[{"id":385,"distance":0.23609307543798},{"id":228,"distance":0.31140405295163},{"id":3223,"distance":0.33826229330226},{"id":522,"distance":0.36824740105779},{"id":2022,"distance":0.47122815046173}]},{"id":455,"status":"Inactive","lastCommunication":1489751950,"latitude":40.75001986,"longitude":-73.96905301,"label":"1 Ave & E 44 St","stationAddress":"","availableBikes":0,"availableDocks":35,"nearbyStations":[{"id":228,"distance":0.34940650320246},{"id":167,"distance":0.37428239080533},{"id":501,"distance":0.41645649238994},{"id":359,"distance":0.46885446748965},{"id":519,"distance":0.47069395125764}]},{"id":456,"status":"Inactive","lastCommunication":1489751929,"latitude":40.7597108,"longitude":-73.97402311,"label":"E 53 St & Madison Ave","stationAddress":"","availableBikes":0,"availableDocks":32,"nearbyStations":[{"id":520,"distance":0.12968777456982},{"id":522,"distance":0.20427756773862},{"id":3223,"distance":0.28531341160635},{"id":359,"distance":0.32238229534084},{"id":228,"distance":0.3704761960919}]},{"id":457,"status":"Active","lastCommunication":1489751931,"latitude":40.76695317,"longitude":-73.98169333,"label":"Broadway & W 58 St","stationAddress":"","availableBikes":16,"availableDocks":22,"nearbyStations":[{"id":469,"distance":0.24815751698451},{"id":2006,"distance":0.28921430277187},{"id":500,"distance":0.33395207823026},{"id":450,"distance":0.45773653393146},{"id":173,"distance":0.45791911353523}]},{"id":458,"status":"Inactive","lastCommunication":1489751928,"latitude":40.751396,"longitude":-74.005226,"label":"11 Ave & W 27 St","stationAddress":"","availableBikes":0,"availableDocks":31,"nearbyStations":[{"id":525,"distance":0.35376053121087},{"id":514,"distance":0.66740590114428},{"id":225,"distance":0.66890600359043},{"id":116,"distance":0.69278064186465},{"id":478,"distance":0.70018166732966}]},{"id":459,"status":"Inactive","lastCommunication":1489751940,"latitude":40.746745,"longitude":-74.007756,"label":"W 20 St & 11 Ave","stationAddress":"","availableBikes":0,"availableDocks":38,"nearbyStations":[{"id":225,"distance":0.33153830237219},{"id":116,"distance":0.47458524348591},{"id":525,"distance":0.70068585644718},{"id":466,"distance":0.87519006660132},{"id":492,"distance":0.91252862541538}]},{"id":460,"status":"Inactive","lastCommunication":1489751858,"latitude":40.71285887,"longitude":-73.96590294,"label":"S 4 St & Wythe Ave","stationAddress":"","availableBikes":0,"availableDocks":18,"nearbyStations":[{"id":532,"distance":0.31145468435126},{"id":2002,"distance":0.31231310575408},{"id":443,"distance":0.31378210859939},{"id":3078,"distance":0.40425783275644},{"id":471,"distance":0.46727832189953}]},{"id":461,"status":"Inactive","lastCommunication":1489751957,"latitude":40.73587678,"longitude":-73.98205027,"label":"E 20 St & 2 Ave","stationAddress":"","availableBikes":0,"availableDocks":27,"nearbyStations":[{"id":325,"distance":0.14298807809697},{"id":174,"distance":0.29132477931154},{"id":2012,"distance":0.36902114949384},{"id":433,"distance":0.44371434234274},{"id":237,"distance":0.44642206304845}]},{"id":462,"status":"Inactive","lastCommunication":1489751983,"latitude":40.74691959,"longitude":-74.00451887,"label":"W 22 St & 10 Ave","stationAddress":"","availableBikes":0,"availableDocks":16,"nearbyStations":[{"id":116,"distance":0.38901528846217},{"id":225,"distance":0.38940603180185},{"id":525,"distance":0.63595728145204},{"id":466,"distance":0.71424025341979},{"id":492,"distance":0.74653485634793}]},{"id":465,"status":"Active","lastCommunication":1489751867,"latitude":40.75513557,"longitude":-73.98658032,"label":"Broadway & W 41 St","stationAddress":"","availableBikes":4,"availableDocks":34,"nearbyStations":[{"id":533,"distance":0.1515117102673},{"id":477,"distance":0.20057452195343},{"id":362,"distance":0.24081522884347},{"id":267,"distance":0.29278681754288},{"id":2021,"distance":0.30592383074724}]},{"id":466,"status":"Active","lastCommunication":1489751996,"latitude":40.74395411,"longitude":-73.99144871,"label":"W 25 St & 6 Ave","stationAddress":"","availableBikes":6,"availableDocks":29,"nearbyStations":[{"id":444,"distance":0.16337688798137},{"id":402,"distance":0.26855563712578},{"id":492,"distance":0.4324230443352},{"id":267,"distance":0.52435036522926},{"id":116,"distance":0.54717199287673}]},{"id":467,"status":"Active","lastCommunication":1489751910,"latitude":40.68312489,"longitude":-73.97895137,"label":"Dean St & 4 Ave","stationAddress":"","availableBikes":11,"availableDocks":19,"nearbyStations":[{"id":83,"distance":0.14598112188314},{"id":3413,"distance":0.19213464500955},{"id":3417,"distance":0.24607998348498},{"id":3412,"distance":0.26396155356414},{"id":274,"distance":0.28784782328968}]},{"id":468,"status":"Inactive","lastCommunication":1489751922,"latitude":40.7652654,"longitude":-73.98192338,"label":"Broadway & W 55 St","stationAddress":"","availableBikes":0,"availableDocks":42,"nearbyStations":[{"id":457,"distance":0.1172406159228},{"id":469,"distance":0.13218229675506},{"id":500,"distance":0.21905524275079},{"id":2006,"distance":0.29548898818425},{"id":173,"distance":0.34469696328871}]},{"id":469,"status":"Active","lastCommunication":1489751929,"latitude":40.76344058,"longitude":-73.98268129,"label":"Broadway & W 53 St","stationAddress":"","availableBikes":14,"availableDocks":42,"nearbyStations":[{"id":500,"distance":0.087225505985067},{"id":173,"distance":0.21361937825051},{"id":457,"distance":0.24815751698451},{"id":450,"distance":0.28390935115003},{"id":2006,"distance":0.37307280320761}]},{"id":470,"status":"Inactive","lastCommunication":1489751937,"latitude":40.74345335,"longitude":-74.00004031,"label":"W 20 St & 8 Ave","stationAddress":"","availableBikes":0,"availableDocks":1,"nearbyStations":[{"id":116,"distance":0.13875092661019},{"id":225,"distance":0.4309631294943},{"id":466,"distance":0.45110668253506},{"id":254,"distance":0.57172557108363},{"id":444,"distance":0.57512014765567}]},{"id":471,"status":"Active","lastCommunication":1489751955,"latitude":40.71286844,"longitude":-73.95698119,"label":"Grand St & Havemeyer St","stationAddress":"","availableBikes":11,"availableDocks":18,"nearbyStations":[{"id":3087,"distance":0.25812050594681},{"id":532,"distance":0.26365892662625},{"id":3078,"distance":0.29062091282228},{"id":3075,"distance":0.40281152815977},{"id":2002,"distance":0.42791961919331}]},{"id":472,"status":"Inactive","lastCommunication":1489751898,"latitude":40.7457121,"longitude":-73.98194829,"label":"E 32 St & Park Ave","stationAddress":"","availableBikes":0,"availableDocks":38,"nearbyStations":[{"id":528,"distance":0.32091361574633},{"id":167,"distance":0.37935885806987},{"id":153,"distance":0.4390954305459},{"id":444,"distance":0.4427198253172},{"id":536,"distance":0.45377208106643}]},{"id":473,"status":"Active","lastCommunication":1489751856,"latitude":40.72110063,"longitude":-73.9919254,"label":"Rivington St & Chrystie St","stationAddress":"","availableBikes":25,"availableDocks":12,"nearbyStations":[{"id":265,"distance":0.085725124260692},{"id":3265,"distance":0.27228503231219},{"id":151,"distance":0.28727589757931},{"id":428,"distance":0.32707366175037},{"id":412,"distance":0.3845132468088}]},{"id":474,"status":"Inactive","lastCommunication":1489751895,"latitude":40.7451677,"longitude":-73.98683077,"label":"5 Ave & E 29 St","stationAddress":"","availableBikes":0,"availableDocks":33,"nearbyStations":[{"id":444,"distance":0.2292203139636},{"id":466,"distance":0.25588070956562},{"id":402,"distance":0.36250690841507},{"id":267,"distance":0.40372431322365},{"id":492,"distance":0.40862285067037}]},{"id":475,"status":"Inactive","lastCommunication":1487684612,"latitude":40.73524276,"longitude":-73.98758561,"label":"E 16 St & Irving Pl","stationAddress":"","availableBikes":0,"availableDocks":0,"nearbyStations":[{"id":325,"distance":0.164415843801},{"id":285,"distance":0.17210884770527},{"id":382,"distance":0.23242026662567},{"id":237,"distance":0.33264757253283},{"id":402,"distance":0.36714402249155}]},{"id":476,"status":"Inactive","lastCommunication":1489751839,"latitude":40.74394314,"longitude":-73.97966069,"label":"E 31 St & 3 Ave","stationAddress":"","availableBikes":0,"availableDocks":28,"nearbyStations":[{"id":528,"distance":0.15373390344369},{"id":536,"distance":0.28371723150411},{"id":2012,"distance":0.34487467631288},{"id":167,"distance":0.3912665591883},{"id":174,"distance":0.41586657256848}]},{"id":477,"status":"Active","lastCommunication":1489751960,"latitude":40.75640548,"longitude":-73.9900262,"label":"W 41 St & 8 Ave","stationAddress":"","availableBikes":29,"availableDocks":30,"nearbyStations":[{"id":465,"distance":0.20057452195343},{"id":2021,"distance":0.21297757576487},{"id":3236,"distance":0.26603033494504},{"id":533,"distance":0.27770661331828},{"id":362,"distance":0.34861866320191}]},{"id":478,"status":"Active","lastCommunication":1489751968,"latitude":40.76030096,"longitude":-73.99884222,"label":"11 Ave & W 41 St","stationAddress":"","availableBikes":26,"availableDocks":4,"nearbyStations":[{"id":514,"distance":0.20970572226446},{"id":3236,"distance":0.27914711023861},{"id":525,"distance":0.34655475368291},{"id":495,"distance":0.34720677070517},{"id":477,"distance":0.53419493903099}]},{"id":479,"status":"Inactive","lastCommunication":1489751968,"latitude":40.76019252,"longitude":-73.9912551,"label":"9 Ave & W 45 St","stationAddress":"","availableBikes":0,"availableDocks":25,"nearbyStations":[{"id":2021,"distance":0.15244645741662},{"id":3236,"distance":0.15716426382672},{"id":495,"distance":0.19608189822863},{"id":450,"distance":0.22762196556848},{"id":477,"distance":0.26946431463986}]},{"id":480,"status":"Inactive","lastCommunication":1489751975,"latitude":40.76669671,"longitude":-73.99061728,"label":"W 53 St & 10 Ave","stationAddress":"","availableBikes":0,"availableDocks":13,"nearbyStations":[{"id":495,"distance":0.30334891249277},{"id":450,"distance":0.33758539996898},{"id":457,"distance":0.46735016018074},{"id":469,"distance":0.47234900240079},{"id":500,"distance":0.48679480559736}]},{"id":481,"status":"Inactive","lastCommunication":1489751762,"latitude":40.71260486,"longitude":-73.96264403,"label":"S 3 St & Bedford Ave","stationAddress":"","availableBikes":0,"availableDocks":19,"nearbyStations":[{"id":532,"distance":0.17528430686783},{"id":3078,"distance":0.27459390811115},{"id":443,"distance":0.29151646967181},{"id":471,"distance":0.29715123618108},{"id":2002,"distance":0.29730460461725}]},{"id":482,"status":"Inactive","lastCommunication":1489751954,"latitude":40.73935542,"longitude":-73.99931783,"label":"W 15 St & 7 Ave","stationAddress":"","availableBikes":0,"availableDocks":8,"nearbyStations":[{"id":116,"distance":0.20247626813278},{"id":254,"distance":0.28690816821212},{"id":225,"distance":0.49012069623044},{"id":382,"distance":0.49012276196349},{"id":369,"distance":0.49406563013114}]},{"id":483,"status":"Inactive","lastCommunication":1489751862,"latitude":40.73223272,"longitude":-73.98889957,"label":"E 12 St & 3 Ave","stationAddress":"","availableBikes":0,"availableDocks":21,"nearbyStations":[{"id":237,"distance":0.16662008311358},{"id":285,"distance":0.18666110238769},{"id":3263,"distance":0.23126971615607},{"id":382,"distance":0.24717715529132},{"id":326,"distance":0.30576457191736}]},{"id":484,"status":"Inactive","lastCommunication":1489751857,"latitude":40.75500254,"longitude":-73.98014437,"label":"W 44 St & 5 Ave","stationAddress":"","availableBikes":0,"availableDocks":44,"nearbyStations":[{"id":153,"distance":0.21758171605149},{"id":519,"distance":0.25110012313147},{"id":517,"distance":0.26376657528758},{"id":359,"distance":0.27003745856515},{"id":465,"distance":0.33699536882478}]},{"id":485,"status":"Inactive","lastCommunication":1489751842,"latitude":40.75038009,"longitude":-73.98338988,"label":"W 37 St & 5 Ave","stationAddress":"","availableBikes":0,"availableDocks":37,"nearbyStations":[{"id":153,"distance":0.14823679268702},{"id":267,"distance":0.22700148463799},{"id":362,"distance":0.23608693503996},{"id":533,"distance":0.2698085124095},{"id":517,"distance":0.29860639222105}]},